{"fullgameschedule":{"lastUpdatedOn":"2017-08-01 2:03:36 PM","gameentry":[{"id":"32629","date":"2016-10-12","time":"7:00PM","awayTeam":{"ID":"12","City":"Toronto","Name":"Maple Leafs","Abbreviation":"TOR"},"homeTeam":{"ID":"13","City":"Ottawa","Name":"Senators","Abbreviation":"OTT"},"location":"Canadian Tire Center"},{"id":"32630","date":"2016-10-12","time":"8:00PM","awayTeam":{"ID":"17","City":"St. Louis","Name":"Blues","Abbreviation":"STL"},"homeTeam":{"ID":"20","City":"Chicago","Name":"Blackhawks","Abbreviation":"CHI"},"location":"United Center"},{"id":"32631","date":"2016-10-12","time":"10:00PM","awayTeam":{"ID":"23","City":"Calgary","Name":"Flames","Abbreviation":"CGY"},"homeTeam":{"ID":"24","City":"Edmonton","Name":"Oilers","Abbreviation":"EDM"},"location":"Rexall Place"},{"id":"32632","date":"2016-10-12","time":"10:30PM","awayTeam":{"ID":"28","City":"Los Angeles","Name":"Kings","Abbreviation":"LAK"},"homeTeam":{"ID":"26","City":"San Jose","Name":"Sharks","Abbreviation":"SJS"},"location":"SAP Center"},{"id":"32633","date":"2016-10-13","time":"7:00PM","awayTeam":{"ID":"14","City":"Montreal","Name":"Canadiens","Abbreviation":"MTL"},"homeTeam":{"ID":"15","City":"Buffalo","Name":"Sabres","Abbreviation":"BUF"},"location":"KeyBank Center"},{"id":"32634","date":"2016-10-13","time":"7:00PM","awayTeam":{"ID":"8","City":"New York","Name":"Islanders","Abbreviation":"NYI"},"homeTeam":{"ID":"9","City":"New York","Name":"Rangers","Abbreviation":"NYR"},"location":"Madison Square Gardens"},{"id":"32636","date":"2016-10-13","time":"7:00PM","awayTeam":{"ID":"11","City":"Boston","Name":"Bruins","Abbreviation":"BOS"},"homeTeam":{"ID":"19","City":"Columbus","Name":"Blue Jackets","Abbreviation":"CBJ"},"location":"Nationwide Arena"},{"id":"32637","date":"2016-10-13","time":"7:30PM","awayTeam":{"ID":"16","City":"Detroit","Name":"Red Wings","Abbreviation":"DET"},"homeTeam":{"ID":"1","City":"Tampa Bay","Name":"Lightning","Abbreviation":"TBL"},"location":"Amalie Arena"},{"id":"32638","date":"2016-10-13","time":"7:30PM","awayTeam":{"ID":"7","City":"New Jersey","Name":"Devils","Abbreviation":"NJD"},"homeTeam":{"ID":"4","City":"Florida","Name":"Panthers","Abbreviation":"FLO"},"location":"BB and T Center"},{"id":"32635","date":"2016-10-13","time":"8:00PM","awayTeam":{"ID":"5","City":"Washington","Name":"Capitals","Abbreviation":"WSH"},"homeTeam":{"ID":"10","City":"Pittsburgh","Name":"Penguins","Abbreviation":"PIT"},"location":"PPG Paints Arena"},{"id":"32639","date":"2016-10-13","time":"8:00PM","awayTeam":{"ID":"25","City":"Minnesota","Name":"Wild","Abbreviation":"MIN"},"homeTeam":{"ID":"17","City":"St. Louis","Name":"Blues","Abbreviation":"STL"},"location":"Scottrade Center"},{"id":"32640","date":"2016-10-13","time":"8:00PM","awayTeam":{"ID":"3","City":"Carolina","Name":"Hurricanes","Abbreviation":"CAR"},"homeTeam":{"ID":"47","City":"Winnipeg","Name":"Jets","Abbreviation":"WPJ"},"location":"MTS Centre"},{"id":"32641","date":"2016-10-13","time":"8:30PM","awayTeam":{"ID":"29","City":"Anaheim","Name":"Ducks","Abbreviation":"ANA"},"homeTeam":{"ID":"27","City":"Dallas","Name":"Stars","Abbreviation":"DAL"},"location":"American Airlines Center"},{"id":"32642","date":"2016-10-14","time":"8:00PM","awayTeam":{"ID":"20","City":"Chicago","Name":"Blackhawks","Abbreviation":"CHI"},"homeTeam":{"ID":"18","City":"Nashville","Name":"Predators","Abbreviation":"NSH"},"location":"Bridgestone Arena"},{"id":"32643","date":"2016-10-14","time":"9:00PM","awayTeam":{"ID":"24","City":"Edmonton","Name":"Oilers","Abbreviation":"EDM"},"homeTeam":{"ID":"23","City":"Calgary","Name":"Flames","Abbreviation":"CGY"},"location":"Scotiabank Saddledome"},{"id":"32644","date":"2016-10-14","time":"10:30PM","awayTeam":{"ID":"6","City":"Philadelphia","Name":"Flyers","Abbreviation":"PHI"},"homeTeam":{"ID":"28","City":"Los Angeles","Name":"Kings","Abbreviation":"LAK"},"location":"Staples Center"},{"id":"32645","date":"2016-10-15","time":"7:00PM","awayTeam":{"ID":"11","City":"Boston","Name":"Bruins","Abbreviation":"BOS"},"homeTeam":{"ID":"12","City":"Toronto","Name":"Maple Leafs","Abbreviation":"TOR"},"location":"Air Canada Center"},{"id":"32646","date":"2016-10-15","time":"7:00PM","awayTeam":{"ID":"14","City":"Montreal","Name":"Canadiens","Abbreviation":"MTL"},"homeTeam":{"ID":"13","City":"Ottawa","Name":"Senators","Abbreviation":"OTT"},"location":"Canadian Tire Center"},{"id":"32647","date":"2016-10-15","time":"7:00PM","awayTeam":{"ID":"7","City":"New Jersey","Name":"Devils","Abbreviation":"NJD"},"homeTeam":{"ID":"1","City":"Tampa Bay","Name":"Lightning","Abbreviation":"TBL"},"location":"Amalie Arena"},{"id":"32648","date":"2016-10-15","time":"7:00PM","awayTeam":{"ID":"16","City":"Detroit","Name":"Red Wings","Abbreviation":"DET"},"homeTeam":{"ID":"4","City":"Florida","Name":"Panthers","Abbreviation":"FLO"},"location":"BB and T Center"},{"id":"32649","date":"2016-10-15","time":"7:00PM","awayTeam":{"ID":"29","City":"Anaheim","Name":"Ducks","Abbreviation":"ANA"},"homeTeam":{"ID":"10","City":"Pittsburgh","Name":"Penguins","Abbreviation":"PIT"},"location":"PPG Paints Arena"},{"id":"32650","date":"2016-10-15","time":"7:00PM","awayTeam":{"ID":"8","City":"New York","Name":"Islanders","Abbreviation":"NYI"},"homeTeam":{"ID":"5","City":"Washington","Name":"Capitals","Abbreviation":"WSH"},"location":"Verizon Center"},{"id":"32651","date":"2016-10-15","time":"7:00PM","awayTeam":{"ID":"26","City":"San Jose","Name":"Sharks","Abbreviation":"SJS"},"homeTeam":{"ID":"19","City":"Columbus","Name":"Blue Jackets","Abbreviation":"CBJ"},"location":"Nationwide Arena"},{"id":"32652","date":"2016-10-15","time":"7:00PM","awayTeam":{"ID":"47","City":"Winnipeg","Name":"Jets","Abbreviation":"WPJ"},"homeTeam":{"ID":"25","City":"Minnesota","Name":"Wild","Abbreviation":"MIN"},"location":"Xcel Energy Center"},{"id":"32653","date":"2016-10-15","time":"8:00PM","awayTeam":{"ID":"9","City":"New York","Name":"Rangers","Abbreviation":"NYR"},"homeTeam":{"ID":"17","City":"St. Louis","Name":"Blues","Abbreviation":"STL"},"location":"Scottrade Center"},{"id":"32654","date":"2016-10-15","time":"8:30PM","awayTeam":{"ID":"18","City":"Nashville","Name":"Predators","Abbreviation":"NSH"},"homeTeam":{"ID":"20","City":"Chicago","Name":"Blackhawks","Abbreviation":"CHI"},"location":"United Center"},{"id":"32655","date":"2016-10-15","time":"9:00PM","awayTeam":{"ID":"27","City":"Dallas","Name":"Stars","Abbreviation":"DAL"},"homeTeam":{"ID":"22","City":"Colorado","Name":"Avalanche","Abbreviation":"COL"},"location":"Pepsi Center"},{"id":"32656","date":"2016-10-15","time":"9:00PM","awayTeam":{"ID":"6","City":"Philadelphia","Name":"Flyers","Abbreviation":"PHI"},"homeTeam":{"ID":"30","City":"Arizona","Name":"Coyotes","Abbreviation":"ARI"},"location":"Gila River Arena"},{"id":"32657","date":"2016-10-15","time":"10:00PM","awayTeam":{"ID":"23","City":"Calgary","Name":"Flames","Abbreviation":"CGY"},"homeTeam":{"ID":"21","City":"Vancouver","Name":"Canucks","Abbreviation":"VAN"},"location":"Rogers Arena"},{"id":"32658","date":"2016-10-16","time":"6:00PM","awayTeam":{"ID":"29","City":"Anaheim","Name":"Ducks","Abbreviation":"ANA"},"homeTeam":{"ID":"8","City":"New York","Name":"Islanders","Abbreviation":"NYI"},"location":"Barclays Center"},{"id":"32659","date":"2016-10-16","time":"7:00PM","awayTeam":{"ID":"15","City":"Buffalo","Name":"Sabres","Abbreviation":"BUF"},"homeTeam":{"ID":"24","City":"Edmonton","Name":"Oilers","Abbreviation":"EDM"},"location":"Rexall Place"},{"id":"32660","date":"2016-10-16","time":"10:00PM","awayTeam":{"ID":"3","City":"Carolina","Name":"Hurricanes","Abbreviation":"CAR"},"homeTeam":{"ID":"21","City":"Vancouver","Name":"Canucks","Abbreviation":"VAN"},"location":"Rogers Arena"},{"id":"32661","date":"2016-10-17","time":"7:00PM","awayTeam":{"ID":"26","City":"San Jose","Name":"Sharks","Abbreviation":"SJS"},"homeTeam":{"ID":"9","City":"New York","Name":"Rangers","Abbreviation":"NYR"},"location":"Madison Square Gardens"},{"id":"32662","date":"2016-10-17","time":"7:00PM","awayTeam":{"ID":"22","City":"Colorado","Name":"Avalanche","Abbreviation":"COL"},"homeTeam":{"ID":"10","City":"Pittsburgh","Name":"Penguins","Abbreviation":"PIT"},"location":"PPG Paints Arena"},{"id":"32663","date":"2016-10-17","time":"7:30PM","awayTeam":{"ID":"13","City":"Ottawa","Name":"Senators","Abbreviation":"OTT"},"homeTeam":{"ID":"16","City":"Detroit","Name":"Red Wings","Abbreviation":"DET"},"location":"Joe Louis Arena"},{"id":"32664","date":"2016-10-17","time":"8:00PM","awayTeam":{"ID":"11","City":"Boston","Name":"Bruins","Abbreviation":"BOS"},"homeTeam":{"ID":"47","City":"Winnipeg","Name":"Jets","Abbreviation":"WPJ"},"location":"MTS Centre"},{"id":"32665","date":"2016-10-18","time":"7:00PM","awayTeam":{"ID":"26","City":"San Jose","Name":"Sharks","Abbreviation":"SJS"},"homeTeam":{"ID":"8","City":"New York","Name":"Islanders","Abbreviation":"NYI"},"location":"Barclays Center"},{"id":"32666","date":"2016-10-18","time":"7:00PM","awayTeam":{"ID":"22","City":"Colorado","Name":"Avalanche","Abbreviation":"COL"},"homeTeam":{"ID":"5","City":"Washington","Name":"Capitals","Abbreviation":"WSH"},"location":"Verizon Center"},{"id":"33857","date":"2016-10-18","time":"7:00PM","awayTeam":{"ID":"29","City":"Anaheim","Name":"Ducks","Abbreviation":"ANA"},"homeTeam":{"ID":"7","City":"New Jersey","Name":"Devils","Abbreviation":"NJD"},"location":"Prudential Center"},{"id":"32667","date":"2016-10-18","time":"7:30PM","awayTeam":{"ID":"10","City":"Pittsburgh","Name":"Penguins","Abbreviation":"PIT"},"homeTeam":{"ID":"14","City":"Montreal","Name":"Canadiens","Abbreviation":"MTL"},"location":"Bell Centre"},{"id":"32668","date":"2016-10-18","time":"7:30PM","awayTeam":{"ID":"30","City":"Arizona","Name":"Coyotes","Abbreviation":"ARI"},"homeTeam":{"ID":"13","City":"Ottawa","Name":"Senators","Abbreviation":"OTT"},"location":"Canadian Tire Center"},{"id":"32669","date":"2016-10-18","time":"7:30PM","awayTeam":{"ID":"4","City":"Florida","Name":"Panthers","Abbreviation":"FLO"},"homeTeam":{"ID":"1","City":"Tampa Bay","Name":"Lightning","Abbreviation":"TBL"},"location":"Amalie Arena"},{"id":"32670","date":"2016-10-18","time":"8:00PM","awayTeam":{"ID":"27","City":"Dallas","Name":"Stars","Abbreviation":"DAL"},"homeTeam":{"ID":"18","City":"Nashville","Name":"Predators","Abbreviation":"NSH"},"location":"Bridgestone Arena"},{"id":"32671","date":"2016-10-18","time":"8:00PM","awayTeam":{"ID":"28","City":"Los Angeles","Name":"Kings","Abbreviation":"LAK"},"homeTeam":{"ID":"25","City":"Minnesota","Name":"Wild","Abbreviation":"MIN"},"location":"Xcel Energy Center"},{"id":"32672","date":"2016-10-18","time":"8:30PM","awayTeam":{"ID":"6","City":"Philadelphia","Name":"Flyers","Abbreviation":"PHI"},"homeTeam":{"ID":"20","City":"Chicago","Name":"Blackhawks","Abbreviation":"CHI"},"location":"United Center"},{"id":"32673","date":"2016-10-18","time":"9:00PM","awayTeam":{"ID":"15","City":"Buffalo","Name":"Sabres","Abbreviation":"BUF"},"homeTeam":{"ID":"23","City":"Calgary","Name":"Flames","Abbreviation":"CGY"},"location":"Scotiabank Saddledome"},{"id":"32674","date":"2016-10-18","time":"9:00PM","awayTeam":{"ID":"3","City":"Carolina","Name":"Hurricanes","Abbreviation":"CAR"},"homeTeam":{"ID":"24","City":"Edmonton","Name":"Oilers","Abbreviation":"EDM"},"location":"Rexall Place"},{"id":"32675","date":"2016-10-18","time":"10:00PM","awayTeam":{"ID":"17","City":"St. Louis","Name":"Blues","Abbreviation":"STL"},"homeTeam":{"ID":"21","City":"Vancouver","Name":"Canucks","Abbreviation":"VAN"},"location":"Rogers Arena"},{"id":"32676","date":"2016-10-19","time":"8:00PM","awayTeam":{"ID":"16","City":"Detroit","Name":"Red Wings","Abbreviation":"DET"},"homeTeam":{"ID":"9","City":"New York","Name":"Rangers","Abbreviation":"NYR"},"location":"Madison Square Gardens"},{"id":"32677","date":"2016-10-19","time":"8:00PM","awayTeam":{"ID":"12","City":"Toronto","Name":"Maple Leafs","Abbreviation":"TOR"},"homeTeam":{"ID":"47","City":"Winnipeg","Name":"Jets","Abbreviation":"WPJ"},"location":"MTS Centre"}]}}