{"fullgameschedule":{"lastUpdatedOn":"2017-08-01 11:54:13 AM","gameentry":[{"id":"33941","date":"2016-10-25","time":"7:30PM","awayTeam":{"ID":"83","City":"New York","Name":"Knicks","Abbreviation":"NYK"},"homeTeam":{"ID":"86","City":"Cleveland","Name":"Cavaliers","Abbreviation":"CLE"},"location":"Quicken Loans Arena"},{"id":"33942","date":"2016-10-25","time":"10:00PM","awayTeam":{"ID":"98","City":"Utah","Name":"Jazz","Abbreviation":"UTA"},"homeTeam":{"ID":"97","City":"Portland","Name":"Trail Blazers","Abbreviation":"POR"},"location":"Moda Center"},{"id":"33943","date":"2016-10-25","time":"10:30PM","awayTeam":{"ID":"106","City":"San Antonio","Name":"Spurs","Abbreviation":"SAS"},"homeTeam":{"ID":"101","City":"Golden State","Name":"Warriors","Abbreviation":"GSW"},"location":"Oracle Arena"},{"id":"33944","date":"2016-10-26","time":"7:00PM","awayTeam":{"ID":"92","City":"Miami","Name":"Heat","Abbreviation":"MIA"},"homeTeam":{"ID":"95","City":"Orlando","Name":"Magic","Abbreviation":"ORL"},"location":"Amway Center"},{"id":"33945","date":"2016-10-26","time":"7:00PM","awayTeam":{"ID":"108","City":"Dallas","Name":"Mavericks","Abbreviation":"DAL"},"homeTeam":{"ID":"87","City":"Indiana","Name":"Pacers","Abbreviation":"IND"},"location":"Bankers Life Fieldhouse"},{"id":"33946","date":"2016-10-26","time":"7:30PM","awayTeam":{"ID":"84","City":"Brooklyn","Name":"Nets","Abbreviation":"BRO"},"homeTeam":{"ID":"82","City":"Boston","Name":"Celtics","Abbreviation":"BOS"},"location":"TD Garden"},{"id":"33947","date":"2016-10-26","time":"7:30PM","awayTeam":{"ID":"88","City":"Detroit","Name":"Pistons","Abbreviation":"DET"},"homeTeam":{"ID":"81","City":"Toronto","Name":"Raptors","Abbreviation":"TOR"},"location":"Air Canada Centre"},{"id":"33948","date":"2016-10-26","time":"8:00PM","awayTeam":{"ID":"93","City":"Charlotte","Name":"Hornets","Abbreviation":"CHA"},"homeTeam":{"ID":"90","City":"Milwaukee","Name":"Bucks","Abbreviation":"MIL"},"location":"BMO Harris Bradley Center"},{"id":"33949","date":"2016-10-26","time":"8:00PM","awayTeam":{"ID":"100","City":"Minnesota","Name":"Timberwolves","Abbreviation":"MIN"},"homeTeam":{"ID":"107","City":"Memphis","Name":"Grizzlies","Abbreviation":"MEM"},"location":"FedEx Forum"},{"id":"33950","date":"2016-10-26","time":"8:00PM","awayTeam":{"ID":"99","City":"Denver","Name":"Nuggets","Abbreviation":"DEN"},"homeTeam":{"ID":"110","City":"New Orleans","Name":"Pelicans","Abbreviation":"NOP"},"location":"Smoothie King Center"},{"id":"33951","date":"2016-10-26","time":"8:00PM","awayTeam":{"ID":"96","City":"Oklahoma City","Name":"Thunder","Abbreviation":"OKL"},"homeTeam":{"ID":"85","City":"Philadelphia","Name":"76ers","Abbreviation":"PHI"},"location":"Wells Fargo Center"},{"id":"33952","date":"2016-10-26","time":"10:00PM","awayTeam":{"ID":"103","City":"Sacramento","Name":"Kings","Abbreviation":"SAC"},"homeTeam":{"ID":"104","City":"Phoenix","Name":"Suns","Abbreviation":"PHX"},"location":"Talking Stick Resort Arena"},{"id":"33953","date":"2016-10-26","time":"10:30PM","awayTeam":{"ID":"109","City":"Houston","Name":"Rockets","Abbreviation":"HOU"},"homeTeam":{"ID":"105","City":"Los Angeles","Name":"Lakers","Abbreviation":"LAL"},"location":"Staples Center"},{"id":"33954","date":"2016-10-27","time":"7:30PM","awayTeam":{"ID":"94","City":"Washington","Name":"Wizards","Abbreviation":"WAS"},"homeTeam":{"ID":"91","City":"Atlanta","Name":"Hawks","Abbreviation":"ATL"},"location":"Philips Arena"},{"id":"33955","date":"2016-10-27","time":"8:00PM","awayTeam":{"ID":"82","City":"Boston","Name":"Celtics","Abbreviation":"BOS"},"homeTeam":{"ID":"89","City":"Chicago","Name":"Bulls","Abbreviation":"CHI"},"location":"United Center"},{"id":"33956","date":"2016-10-27","time":"10:30PM","awayTeam":{"ID":"106","City":"San Antonio","Name":"Spurs","Abbreviation":"SAS"},"homeTeam":{"ID":"103","City":"Sacramento","Name":"Kings","Abbreviation":"SAC"},"location":"Sleep Train Arena"},{"id":"33957","date":"2016-10-27","time":"10:30PM","awayTeam":{"ID":"102","City":"Los Angeles","Name":"Clippers","Abbreviation":"LAC"},"homeTeam":{"ID":"97","City":"Portland","Name":"Trail Blazers","Abbreviation":"POR"},"location":"Moda Center"},{"id":"33958","date":"2016-10-28","time":"7:00PM","awayTeam":{"ID":"86","City":"Cleveland","Name":"Cavaliers","Abbreviation":"CLE"},"homeTeam":{"ID":"81","City":"Toronto","Name":"Raptors","Abbreviation":"TOR"},"location":"Air Canada Centre"},{"id":"33959","date":"2016-10-28","time":"7:30PM","awayTeam":{"ID":"87","City":"Indiana","Name":"Pacers","Abbreviation":"IND"},"homeTeam":{"ID":"84","City":"Brooklyn","Name":"Nets","Abbreviation":"BRO"},"location":"Barclays Center"},{"id":"33960","date":"2016-10-28","time":"7:30PM","awayTeam":{"ID":"95","City":"Orlando","Name":"Magic","Abbreviation":"ORL"},"homeTeam":{"ID":"88","City":"Detroit","Name":"Pistons","Abbreviation":"DET"},"location":"Palace of Auburn Hills"},{"id":"33961","date":"2016-10-28","time":"8:00PM","awayTeam":{"ID":"104","City":"Phoenix","Name":"Suns","Abbreviation":"PHX"},"homeTeam":{"ID":"96","City":"Oklahoma City","Name":"Thunder","Abbreviation":"OKL"},"location":"Chesapeake Energy Arena"},{"id":"33962","date":"2016-10-28","time":"8:00PM","awayTeam":{"ID":"93","City":"Charlotte","Name":"Hornets","Abbreviation":"CHA"},"homeTeam":{"ID":"92","City":"Miami","Name":"Heat","Abbreviation":"MIA"},"location":"American Airlines Arena"},{"id":"33963","date":"2016-10-28","time":"8:30PM","awayTeam":{"ID":"109","City":"Houston","Name":"Rockets","Abbreviation":"HOU"},"homeTeam":{"ID":"108","City":"Dallas","Name":"Mavericks","Abbreviation":"DAL"},"location":"American Airlines Center"},{"id":"33964","date":"2016-10-28","time":"9:00PM","awayTeam":{"ID":"105","City":"Los Angeles","Name":"Lakers","Abbreviation":"LAL"},"homeTeam":{"ID":"98","City":"Utah","Name":"Jazz","Abbreviation":"UTA"},"location":"Vivint Smart Home Arena"},{"id":"33965","date":"2016-10-28","time":"9:30PM","awayTeam":{"ID":"101","City":"Golden State","Name":"Warriors","Abbreviation":"GSW"},"homeTeam":{"ID":"110","City":"New Orleans","Name":"Pelicans","Abbreviation":"NOP"},"location":"Smoothie King Center"},{"id":"33966","date":"2016-10-29","time":"12:30PM","awayTeam":{"ID":"91","City":"Atlanta","Name":"Hawks","Abbreviation":"ATL"},"homeTeam":{"ID":"85","City":"Philadelphia","Name":"76ers","Abbreviation":"PHI"},"location":"Wells Fargo Center"},{"id":"33967","date":"2016-10-29","time":"7:00PM","awayTeam":{"ID":"82","City":"Boston","Name":"Celtics","Abbreviation":"BOS"},"homeTeam":{"ID":"93","City":"Charlotte","Name":"Hornets","Abbreviation":"CHA"},"location":"Time Warner Cable Arena"},{"id":"33968","date":"2016-10-29","time":"7:30PM","awayTeam":{"ID":"107","City":"Memphis","Name":"Grizzlies","Abbreviation":"MEM"},"homeTeam":{"ID":"83","City":"New York","Name":"Knicks","Abbreviation":"NYK"},"location":"Madison Square Garden"},{"id":"33969","date":"2016-10-29","time":"7:30PM","awayTeam":{"ID":"95","City":"Orlando","Name":"Magic","Abbreviation":"ORL"},"homeTeam":{"ID":"86","City":"Cleveland","Name":"Cavaliers","Abbreviation":"CLE"},"location":"Quicken Loans Arena"},{"id":"33970","date":"2016-10-29","time":"8:00PM","awayTeam":{"ID":"87","City":"Indiana","Name":"Pacers","Abbreviation":"IND"},"homeTeam":{"ID":"89","City":"Chicago","Name":"Bulls","Abbreviation":"CHI"},"location":"United Center"},{"id":"33971","date":"2016-10-29","time":"8:00PM","awayTeam":{"ID":"84","City":"Brooklyn","Name":"Nets","Abbreviation":"BRO"},"homeTeam":{"ID":"90","City":"Milwaukee","Name":"Bucks","Abbreviation":"MIL"},"location":"BMO Harris Bradley Center"},{"id":"33972","date":"2016-10-29","time":"8:00PM","awayTeam":{"ID":"110","City":"New Orleans","Name":"Pelicans","Abbreviation":"NOP"},"homeTeam":{"ID":"106","City":"San Antonio","Name":"Spurs","Abbreviation":"SAS"},"location":"AT&T Center"},{"id":"33973","date":"2016-10-29","time":"9:00PM","awayTeam":{"ID":"97","City":"Portland","Name":"Trail Blazers","Abbreviation":"POR"},"homeTeam":{"ID":"99","City":"Denver","Name":"Nuggets","Abbreviation":"DEN"},"location":"Pepsi Center"},{"id":"33974","date":"2016-10-29","time":"10:30PM","awayTeam":{"ID":"100","City":"Minnesota","Name":"Timberwolves","Abbreviation":"MIN"},"homeTeam":{"ID":"103","City":"Sacramento","Name":"Kings","Abbreviation":"SAC"},"location":"Sleep Train Arena"},{"id":"33975","date":"2016-10-30","time":"4:30PM","awayTeam":{"ID":"98","City":"Utah","Name":"Jazz","Abbreviation":"UTA"},"homeTeam":{"ID":"102","City":"Los Angeles","Name":"Clippers","Abbreviation":"LAC"},"location":"Staples Center"},{"id":"33976","date":"2016-10-30","time":"6:00PM","awayTeam":{"ID":"101","City":"Golden State","Name":"Warriors","Abbreviation":"GSW"},"homeTeam":{"ID":"104","City":"Phoenix","Name":"Suns","Abbreviation":"PHX"},"location":"Talking Stick Resort Arena"},{"id":"33977","date":"2016-10-30","time":"6:00PM","awayTeam":{"ID":"106","City":"San Antonio","Name":"Spurs","Abbreviation":"SAS"},"homeTeam":{"ID":"92","City":"Miami","Name":"Heat","Abbreviation":"MIA"},"location":"American Airlines Arena"},{"id":"33978","date":"2016-10-30","time":"6:00PM","awayTeam":{"ID":"90","City":"Milwaukee","Name":"Bucks","Abbreviation":"MIL"},"homeTeam":{"ID":"88","City":"Detroit","Name":"Pistons","Abbreviation":"DET"},"location":"Palace of Auburn Hills"},{"id":"33980","date":"2016-10-30","time":"7:00PM","awayTeam":{"ID":"105","City":"Los Angeles","Name":"Lakers","Abbreviation":"LAL"},"homeTeam":{"ID":"96","City":"Oklahoma City","Name":"Thunder","Abbreviation":"OKL"},"location":"Chesapeake Energy Arena"},{"id":"33979","date":"2016-10-30","time":"8:00PM","awayTeam":{"ID":"94","City":"Washington","Name":"Wizards","Abbreviation":"WAS"},"homeTeam":{"ID":"107","City":"Memphis","Name":"Grizzlies","Abbreviation":"MEM"},"location":"FedEx Forum"},{"id":"33981","date":"2016-10-30","time":"8:00PM","awayTeam":{"ID":"108","City":"Dallas","Name":"Mavericks","Abbreviation":"DAL"},"homeTeam":{"ID":"109","City":"Houston","Name":"Rockets","Abbreviation":"HOU"},"location":"Toyota Center"},{"id":"33982","date":"2016-10-31","time":"7:30PM","awayTeam":{"ID":"99","City":"Denver","Name":"Nuggets","Abbreviation":"DEN"},"homeTeam":{"ID":"81","City":"Toronto","Name":"Raptors","Abbreviation":"TOR"},"location":"Air Canada Centre"},{"id":"33983","date":"2016-10-31","time":"7:30PM","awayTeam":{"ID":"89","City":"Chicago","Name":"Bulls","Abbreviation":"CHI"},"homeTeam":{"ID":"84","City":"Brooklyn","Name":"Nets","Abbreviation":"BRO"},"location":"Barclays Center"},{"id":"33984","date":"2016-10-31","time":"7:30PM","awayTeam":{"ID":"103","City":"Sacramento","Name":"Kings","Abbreviation":"SAC"},"homeTeam":{"ID":"91","City":"Atlanta","Name":"Hawks","Abbreviation":"ATL"},"location":"Philips Arena"},{"id":"33985","date":"2016-10-31","time":"10:30PM","awayTeam":{"ID":"104","City":"Phoenix","Name":"Suns","Abbreviation":"PHX"},"homeTeam":{"ID":"102","City":"Los Angeles","Name":"Clippers","Abbreviation":"LAC"},"location":"Staples Center"},{"id":"33987","date":"2016-11-01","time":"6:00PM","awayTeam":{"ID":"109","City":"Houston","Name":"Rockets","Abbreviation":"HOU"},"homeTeam":{"ID":"86","City":"Cleveland","Name":"Cavaliers","Abbreviation":"CLE"},"location":"Quicken Loans Arena"},{"id":"33986","date":"2016-11-01","time":"7:00PM","awayTeam":{"ID":"95","City":"Orlando","Name":"Magic","Abbreviation":"ORL"},"homeTeam":{"ID":"85","City":"Philadelphia","Name":"76ers","Abbreviation":"PHI"},"location":"Wells Fargo Center"},{"id":"33988","date":"2016-11-01","time":"7:00PM","awayTeam":{"ID":"105","City":"Los Angeles","Name":"Lakers","Abbreviation":"LAL"},"homeTeam":{"ID":"87","City":"Indiana","Name":"Pacers","Abbreviation":"IND"},"location":"Bankers Life Fieldhouse"},{"id":"33989","date":"2016-11-01","time":"7:30PM","awayTeam":{"ID":"103","City":"Sacramento","Name":"Kings","Abbreviation":"SAC"},"homeTeam":{"ID":"92","City":"Miami","Name":"Heat","Abbreviation":"MIA"},"location":"American Airlines Arena"},{"id":"33990","date":"2016-11-01","time":"7:30PM","awayTeam":{"ID":"83","City":"New York","Name":"Knicks","Abbreviation":"NYK"},"homeTeam":{"ID":"88","City":"Detroit","Name":"Pistons","Abbreviation":"DET"},"location":"Palace of Auburn Hills"}]}}