{"fullgameschedule":{"lastUpdatedOn":"2017-08-05 9:07:03 AM","gameentry":[{"id":"40780","date":"2017-10-05","time":"7:00PM","awayTeam":{"ID":"14","City":"Montreal","Name":"Canadiens","Abbreviation":"MTL"},"homeTeam":{"ID":"15","City":"Buffalo","Name":"Sabres","Abbreviation":"BUF"},"location":"KeyBank Center"},{"id":"40790","date":"2017-10-07","time":"7:00PM","awayTeam":{"ID":"14","City":"Montreal","Name":"Canadiens","Abbreviation":"MTL"},"homeTeam":{"ID":"5","City":"Washington","Name":"Capitals","Abbreviation":"WSH"},"location":"Verizon Center"},{"id":"40804","date":"2017-10-08","time":"7:00PM","awayTeam":{"ID":"14","City":"Montreal","Name":"Canadiens","Abbreviation":"MTL"},"homeTeam":{"ID":"9","City":"New York","Name":"Rangers","Abbreviation":"NYR"},"location":"Madison Square Garden"},{"id":"40814","date":"2017-10-10","time":"7:30PM","awayTeam":{"ID":"20","City":"Chicago","Name":"Blackhawks","Abbreviation":"CHI"},"homeTeam":{"ID":"14","City":"Montreal","Name":"Canadiens","Abbreviation":"MTL"},"location":"Bell Centre"},{"id":"40840","date":"2017-10-14","time":"7:00PM","awayTeam":{"ID":"12","City":"Toronto","Name":"Maple Leafs","Abbreviation":"TOR"},"homeTeam":{"ID":"14","City":"Montreal","Name":"Canadiens","Abbreviation":"MTL"},"location":"Bell Centre"},{"id":"40864","date":"2017-10-17","time":"10:30PM","awayTeam":{"ID":"14","City":"Montreal","Name":"Canadiens","Abbreviation":"MTL"},"homeTeam":{"ID":"26","City":"San Jose","Name":"Sharks","Abbreviation":"SJS"},"location":"SAP Center"},{"id":"40867","date":"2017-10-18","time":"10:30PM","awayTeam":{"ID":"14","City":"Montreal","Name":"Canadiens","Abbreviation":"MTL"},"homeTeam":{"ID":"28","City":"Los Angeles","Name":"Kings","Abbreviation":"LAK"},"location":"Staples Center"},{"id":"40882","date":"2017-10-20","time":"10:00PM","awayTeam":{"ID":"14","City":"Montreal","Name":"Canadiens","Abbreviation":"MTL"},"homeTeam":{"ID":"29","City":"Anaheim","Name":"Ducks","Abbreviation":"ANA"},"location":"Honda Center"},{"id":"40904","date":"2017-10-24","time":"7:30PM","awayTeam":{"ID":"4","City":"Florida","Name":"Panthers","Abbreviation":"FLO"},"homeTeam":{"ID":"14","City":"Montreal","Name":"Canadiens","Abbreviation":"MTL"},"location":"Bell Centre"},{"id":"40917","date":"2017-10-26","time":"7:30PM","awayTeam":{"ID":"28","City":"Los Angeles","Name":"Kings","Abbreviation":"LAK"},"homeTeam":{"ID":"14","City":"Montreal","Name":"Canadiens","Abbreviation":"MTL"},"location":"Bell Centre"},{"id":"40933","date":"2017-10-28","time":"7:00PM","awayTeam":{"ID":"9","City":"New York","Name":"Rangers","Abbreviation":"NYR"},"homeTeam":{"ID":"14","City":"Montreal","Name":"Canadiens","Abbreviation":"MTL"},"location":"Bell Centre"},{"id":"40946","date":"2017-10-30","time":"7:30PM","awayTeam":{"ID":"14","City":"Montreal","Name":"Canadiens","Abbreviation":"MTL"},"homeTeam":{"ID":"13","City":"Ottawa","Name":"Senators","Abbreviation":"OTT"},"location":"Canadian Tire Center"},{"id":"40964","date":"2017-11-02","time":"8:00PM","awayTeam":{"ID":"14","City":"Montreal","Name":"Canadiens","Abbreviation":"MTL"},"homeTeam":{"ID":"25","City":"Minnesota","Name":"Wild","Abbreviation":"MIN"},"location":"Xcel Energy Center"},{"id":"40977","date":"2017-11-04","time":"7:00PM","awayTeam":{"ID":"14","City":"Montreal","Name":"Canadiens","Abbreviation":"MTL"},"homeTeam":{"ID":"47","City":"Winnipeg","Name":"Jets","Abbreviation":"WPJ"},"location":"MTS Centre"},{"id":"40988","date":"2017-11-05","time":"7:00PM","awayTeam":{"ID":"14","City":"Montreal","Name":"Canadiens","Abbreviation":"MTL"},"homeTeam":{"ID":"20","City":"Chicago","Name":"Blackhawks","Abbreviation":"CHI"},"location":"United Center"},{"id":"41002","date":"2017-11-07","time":"7:30PM","awayTeam":{"ID":"142","City":"Vegas","Name":"Golden Knights","Abbreviation":"VGK"},"homeTeam":{"ID":"14","City":"Montreal","Name":"Canadiens","Abbreviation":"MTL"},"location":"Bell Centre"},{"id":"41010","date":"2017-11-09","time":"7:30PM","awayTeam":{"ID":"25","City":"Minnesota","Name":"Wild","Abbreviation":"MIN"},"homeTeam":{"ID":"14","City":"Montreal","Name":"Canadiens","Abbreviation":"MTL"},"location":"Bell Centre"},{"id":"41027","date":"2017-11-11","time":"7:00PM","awayTeam":{"ID":"15","City":"Buffalo","Name":"Sabres","Abbreviation":"BUF"},"homeTeam":{"ID":"14","City":"Montreal","Name":"Canadiens","Abbreviation":"MTL"},"location":"Bell Centre"},{"id":"41042","date":"2017-11-14","time":"7:30PM","awayTeam":{"ID":"19","City":"Columbus","Name":"Blue Jackets","Abbreviation":"CBJ"},"homeTeam":{"ID":"14","City":"Montreal","Name":"Canadiens","Abbreviation":"MTL"},"location":"Bell Centre"},{"id":"41053","date":"2017-11-16","time":"7:30PM","awayTeam":{"ID":"30","City":"Arizona","Name":"Coyotes","Abbreviation":"ARI"},"homeTeam":{"ID":"14","City":"Montreal","Name":"Canadiens","Abbreviation":"MTL"},"location":"Bell Centre"},{"id":"41073","date":"2017-11-18","time":"7:00PM","awayTeam":{"ID":"12","City":"Toronto","Name":"Maple Leafs","Abbreviation":"TOR"},"homeTeam":{"ID":"14","City":"Montreal","Name":"Canadiens","Abbreviation":"MTL"},"location":"Bell Centre"},{"id":"41091","date":"2017-11-21","time":"8:30PM","awayTeam":{"ID":"14","City":"Montreal","Name":"Canadiens","Abbreviation":"MTL"},"homeTeam":{"ID":"27","City":"Dallas","Name":"Stars","Abbreviation":"DAL"},"location":"American Airlines Center"},{"id":"41102","date":"2017-11-22","time":"8:00PM","awayTeam":{"ID":"14","City":"Montreal","Name":"Canadiens","Abbreviation":"MTL"},"homeTeam":{"ID":"18","City":"Nashville","Name":"Predators","Abbreviation":"NSH"},"location":"Bridgestone Arena"},{"id":"41125","date":"2017-11-25","time":"7:00PM","awayTeam":{"ID":"15","City":"Buffalo","Name":"Sabres","Abbreviation":"BUF"},"homeTeam":{"ID":"14","City":"Montreal","Name":"Canadiens","Abbreviation":"MTL"},"location":"Bell Centre"},{"id":"41137","date":"2017-11-27","time":"7:30PM","awayTeam":{"ID":"19","City":"Columbus","Name":"Blue Jackets","Abbreviation":"CBJ"},"homeTeam":{"ID":"14","City":"Montreal","Name":"Canadiens","Abbreviation":"MTL"},"location":"Bell Centre"},{"id":"41150","date":"2017-11-29","time":"7:30PM","awayTeam":{"ID":"13","City":"Ottawa","Name":"Senators","Abbreviation":"OTT"},"homeTeam":{"ID":"14","City":"Montreal","Name":"Canadiens","Abbreviation":"MTL"},"location":"Bell Centre"},{"id":"41155","date":"2017-11-30","time":"7:30PM","awayTeam":{"ID":"14","City":"Montreal","Name":"Canadiens","Abbreviation":"MTL"},"homeTeam":{"ID":"16","City":"Detroit","Name":"Red Wings","Abbreviation":"DET"},"location":"Joe Louis Arena"},{"id":"41175","date":"2017-12-02","time":"7:00PM","awayTeam":{"ID":"16","City":"Detroit","Name":"Red Wings","Abbreviation":"DET"},"homeTeam":{"ID":"14","City":"Montreal","Name":"Canadiens","Abbreviation":"MTL"},"location":"Bell Centre"},{"id":"41192","date":"2017-12-05","time":"7:30PM","awayTeam":{"ID":"17","City":"St. Louis","Name":"Blues","Abbreviation":"STL"},"homeTeam":{"ID":"14","City":"Montreal","Name":"Canadiens","Abbreviation":"MTL"},"location":"Bell Centre"},{"id":"41206","date":"2017-12-07","time":"7:30PM","awayTeam":{"ID":"23","City":"Calgary","Name":"Flames","Abbreviation":"CGY"},"homeTeam":{"ID":"14","City":"Montreal","Name":"Canadiens","Abbreviation":"MTL"},"location":"Bell Centre"},{"id":"41218","date":"2017-12-09","time":"7:00PM","awayTeam":{"ID":"24","City":"Edmonton","Name":"Oilers","Abbreviation":"EDM"},"homeTeam":{"ID":"14","City":"Montreal","Name":"Canadiens","Abbreviation":"MTL"},"location":"Bell Centre"},{"id":"41255","date":"2017-12-14","time":"7:30PM","awayTeam":{"ID":"7","City":"New Jersey","Name":"Devils","Abbreviation":"NJD"},"homeTeam":{"ID":"14","City":"Montreal","Name":"Canadiens","Abbreviation":"MTL"},"location":"Bell Centre"},{"id":"41271","date":"2017-12-16","time":"7:00PM","awayTeam":{"ID":"14","City":"Montreal","Name":"Canadiens","Abbreviation":"MTL"},"homeTeam":{"ID":"13","City":"Ottawa","Name":"Senators","Abbreviation":"OTT"},"location":"Canadian Tire Center"},{"id":"41297","date":"2017-12-19","time":"10:00PM","awayTeam":{"ID":"14","City":"Montreal","Name":"Canadiens","Abbreviation":"MTL"},"homeTeam":{"ID":"21","City":"Vancouver","Name":"Canucks","Abbreviation":"VAN"},"location":"Rogers Arena"},{"id":"41315","date":"2017-12-22","time":"9:00PM","awayTeam":{"ID":"14","City":"Montreal","Name":"Canadiens","Abbreviation":"MTL"},"homeTeam":{"ID":"23","City":"Calgary","Name":"Flames","Abbreviation":"CGY"},"location":"Scotiabank Saddledome"},{"id":"41324","date":"2017-12-23","time":"7:00PM","awayTeam":{"ID":"14","City":"Montreal","Name":"Canadiens","Abbreviation":"MTL"},"homeTeam":{"ID":"24","City":"Edmonton","Name":"Oilers","Abbreviation":"EDM"},"location":"Rexall Place"},{"id":"41331","date":"2017-12-27","time":"7:00PM","awayTeam":{"ID":"14","City":"Montreal","Name":"Canadiens","Abbreviation":"MTL"},"homeTeam":{"ID":"3","City":"Carolina","Name":"Hurricanes","Abbreviation":"CAR"},"location":"PNC Arena"},{"id":"41343","date":"2017-12-28","time":"7:30PM","awayTeam":{"ID":"14","City":"Montreal","Name":"Canadiens","Abbreviation":"MTL"},"homeTeam":{"ID":"1","City":"Tampa Bay","Name":"Lightning","Abbreviation":"TBL"},"location":"Amalie Arena"},{"id":"41362","date":"2017-12-30","time":"7:00PM","awayTeam":{"ID":"14","City":"Montreal","Name":"Canadiens","Abbreviation":"MTL"},"homeTeam":{"ID":"4","City":"Florida","Name":"Panthers","Abbreviation":"FLO"},"location":"BB and T Center"},{"id":"41379","date":"2018-01-02","time":"7:30PM","awayTeam":{"ID":"26","City":"San Jose","Name":"Sharks","Abbreviation":"SJS"},"homeTeam":{"ID":"14","City":"Montreal","Name":"Canadiens","Abbreviation":"MTL"},"location":"Bell Centre"},{"id":"41393","date":"2018-01-04","time":"7:30PM","awayTeam":{"ID":"1","City":"Tampa Bay","Name":"Lightning","Abbreviation":"TBL"},"homeTeam":{"ID":"14","City":"Montreal","Name":"Canadiens","Abbreviation":"MTL"},"location":"Bell Centre"},{"id":"41421","date":"2018-01-07","time":"7:00PM","awayTeam":{"ID":"21","City":"Vancouver","Name":"Canucks","Abbreviation":"VAN"},"homeTeam":{"ID":"14","City":"Montreal","Name":"Canadiens","Abbreviation":"MTL"},"location":"Bell Centre"},{"id":"41445","date":"2018-01-13","time":"7:00PM","awayTeam":{"ID":"11","City":"Boston","Name":"Bruins","Abbreviation":"BOS"},"homeTeam":{"ID":"14","City":"Montreal","Name":"Canadiens","Abbreviation":"MTL"},"location":"Bell Centre"},{"id":"41459","date":"2018-01-15","time":"7:30PM","awayTeam":{"ID":"8","City":"New York","Name":"Islanders","Abbreviation":"NYI"},"homeTeam":{"ID":"14","City":"Montreal","Name":"Canadiens","Abbreviation":"MTL"},"location":"Bell Centre"},{"id":"41466","date":"2018-01-17","time":"7:30PM","awayTeam":{"ID":"14","City":"Montreal","Name":"Canadiens","Abbreviation":"MTL"},"homeTeam":{"ID":"11","City":"Boston","Name":"Bruins","Abbreviation":"BOS"},"location":"TD Garden"},{"id":"41478","date":"2018-01-19","time":"7:30PM","awayTeam":{"ID":"14","City":"Montreal","Name":"Canadiens","Abbreviation":"MTL"},"homeTeam":{"ID":"5","City":"Washington","Name":"Capitals","Abbreviation":"WSH"},"location":"Verizon Center"},{"id":"41487","date":"2018-01-20","time":"7:00PM","awayTeam":{"ID":"11","City":"Boston","Name":"Bruins","Abbreviation":"BOS"},"homeTeam":{"ID":"14","City":"Montreal","Name":"Canadiens","Abbreviation":"MTL"},"location":"Bell Centre"},{"id":"41507","date":"2018-01-23","time":"7:30PM","awayTeam":{"ID":"22","City":"Colorado","Name":"Avalanche","Abbreviation":"COL"},"homeTeam":{"ID":"14","City":"Montreal","Name":"Canadiens","Abbreviation":"MTL"},"location":"Bell Centre"},{"id":"41522","date":"2018-01-25","time":"7:30PM","awayTeam":{"ID":"3","City":"Carolina","Name":"Hurricanes","Abbreviation":"CAR"},"homeTeam":{"ID":"14","City":"Montreal","Name":"Canadiens","Abbreviation":"MTL"},"location":"Bell Centre"},{"id":"41540","date":"2018-01-30","time":"8:00PM","awayTeam":{"ID":"14","City":"Montreal","Name":"Canadiens","Abbreviation":"MTL"},"homeTeam":{"ID":"17","City":"St. Louis","Name":"Blues","Abbreviation":"STL"},"location":"Scottrade Center"}]}}