{"fullgameschedule":{"lastUpdatedOn":"2017-08-05 7:34:14 AM","gameentry":[{"id":"40306","date":"2017-04-16","time":"6:30PM","awayTeam":{"ID":"89","City":"Chicago","Name":"Bulls","Abbreviation":"CHI"},"homeTeam":{"ID":"82","City":"Boston","Name":"Celtics","Abbreviation":"BOS"},"location":"TD Garden"},{"id":"40307","date":"2017-04-18","time":"8:00PM","awayTeam":{"ID":"89","City":"Chicago","Name":"Bulls","Abbreviation":"CHI"},"homeTeam":{"ID":"82","City":"Boston","Name":"Celtics","Abbreviation":"BOS"},"location":"TD Garden"},{"id":"40308","date":"2017-04-21","time":"7:00PM","awayTeam":{"ID":"82","City":"Boston","Name":"Celtics","Abbreviation":"BOS"},"homeTeam":{"ID":"89","City":"Chicago","Name":"Bulls","Abbreviation":"CHI"},"location":"United Center"},{"id":"40309","date":"2017-04-23","time":"6:30PM","awayTeam":{"ID":"82","City":"Boston","Name":"Celtics","Abbreviation":"BOS"},"homeTeam":{"ID":"89","City":"Chicago","Name":"Bulls","Abbreviation":"CHI"},"location":"United Center"},{"id":"40643","date":"2017-04-26","time":"8:30PM","awayTeam":{"ID":"89","City":"Chicago","Name":"Bulls","Abbreviation":"CHI"},"homeTeam":{"ID":"82","City":"Boston","Name":"Celtics","Abbreviation":"BOS"},"location":"TD Garden"},{"id":"40648","date":"2017-04-28","time":"8:00PM","awayTeam":{"ID":"82","City":"Boston","Name":"Celtics","Abbreviation":"BOS"},"homeTeam":{"ID":"89","City":"Chicago","Name":"Bulls","Abbreviation":"CHI"},"location":"United Center"},{"id":"40659","date":"2017-04-30","time":"1:00PM","awayTeam":{"ID":"94","City":"Washington","Name":"Wizards","Abbreviation":"WAS"},"homeTeam":{"ID":"82","City":"Boston","Name":"Celtics","Abbreviation":"BOS"},"location":"TD Garden"},{"id":"40661","date":"2017-05-02","time":"8:00PM","awayTeam":{"ID":"94","City":"Washington","Name":"Wizards","Abbreviation":"WAS"},"homeTeam":{"ID":"82","City":"Boston","Name":"Celtics","Abbreviation":"BOS"},"location":"TD Garden"},{"id":"40663","date":"2017-05-04","time":"8:00PM","awayTeam":{"ID":"82","City":"Boston","Name":"Celtics","Abbreviation":"BOS"},"homeTeam":{"ID":"94","City":"Washington","Name":"Wizards","Abbreviation":"WAS"},"location":"Verizon Center"},{"id":"40666","date":"2017-05-07","time":"6:30PM","awayTeam":{"ID":"82","City":"Boston","Name":"Celtics","Abbreviation":"BOS"},"homeTeam":{"ID":"94","City":"Washington","Name":"Wizards","Abbreviation":"WAS"},"location":"Verizon Center"},{"id":"40684","date":"2017-05-10","time":"8:00PM","awayTeam":{"ID":"94","City":"Washington","Name":"Wizards","Abbreviation":"WAS"},"homeTeam":{"ID":"82","City":"Boston","Name":"Celtics","Abbreviation":"BOS"},"location":"TD Garden"},{"id":"40686","date":"2017-05-12","time":"8:00PM","awayTeam":{"ID":"82","City":"Boston","Name":"Celtics","Abbreviation":"BOS"},"homeTeam":{"ID":"94","City":"Washington","Name":"Wizards","Abbreviation":"WAS"},"location":"Verizon Center"},{"id":"40710","date":"2017-05-15","time":"8:00PM","awayTeam":{"ID":"94","City":"Washington","Name":"Wizards","Abbreviation":"WAS"},"homeTeam":{"ID":"82","City":"Boston","Name":"Celtics","Abbreviation":"BOS"},"location":"TD Garden"},{"id":"40717","date":"2017-05-17","time":"8:30PM","awayTeam":{"ID":"86","City":"Cleveland","Name":"Cavaliers","Abbreviation":"CLE"},"homeTeam":{"ID":"82","City":"Boston","Name":"Celtics","Abbreviation":"BOS"},"location":"TD Garden"},{"id":"40718","date":"2017-05-19","time":"8:30PM","awayTeam":{"ID":"86","City":"Cleveland","Name":"Cavaliers","Abbreviation":"CLE"},"homeTeam":{"ID":"82","City":"Boston","Name":"Celtics","Abbreviation":"BOS"},"location":"TD Garden"},{"id":"40720","date":"2017-05-21","time":"8:30PM","awayTeam":{"ID":"82","City":"Boston","Name":"Celtics","Abbreviation":"BOS"},"homeTeam":{"ID":"86","City":"Cleveland","Name":"Cavaliers","Abbreviation":"CLE"},"location":"Quicken Loans Arena"},{"id":"40722","date":"2017-05-23","time":"8:30PM","awayTeam":{"ID":"82","City":"Boston","Name":"Celtics","Abbreviation":"BOS"},"homeTeam":{"ID":"86","City":"Cleveland","Name":"Cavaliers","Abbreviation":"CLE"},"location":"Quicken Loans Arena"},{"id":"40724","date":"2017-05-25","time":"8:30PM","awayTeam":{"ID":"86","City":"Cleveland","Name":"Cavaliers","Abbreviation":"CLE"},"homeTeam":{"ID":"82","City":"Boston","Name":"Celtics","Abbreviation":"BOS"},"location":"TD Garden"}]}}