{"fullgameschedule":{"lastUpdatedOn":"2017-08-10 1:12:40 PM","gameentry":[{"id":"40366","date":"2017-09-07","time":"8:30PM","awayTeam":{"ID":"73","City":"Kansas City","Name":"Chiefs","Abbreviation":"KC"},"homeTeam":{"ID":"50","City":"New England","Name":"Patriots","Abbreviation":"NE"},"location":"Gillette Stadium"},{"id":"40367","date":"2017-09-10","time":"1:00PM","awayTeam":{"ID":"51","City":"New York","Name":"Jets","Abbreviation":"NYJ"},"homeTeam":{"ID":"48","City":"Buffalo","Name":"Bills","Abbreviation":"BUF"},"location":"Ralph Wilson Stadium"},{"id":"40368","date":"2017-09-10","time":"1:00PM","awayTeam":{"ID":"54","City":"Philadelphia","Name":"Eagles","Abbreviation":"PHI"},"homeTeam":{"ID":"55","City":"Washington","Name":"Redskins","Abbreviation":"WAS"},"location":"FedEx Field"},{"id":"40369","date":"2017-09-10","time":"1:00PM","awayTeam":{"ID":"74","City":"Oakland","Name":"Raiders","Abbreviation":"OAK"},"homeTeam":{"ID":"67","City":"Tennessee","Name":"Titans","Abbreviation":"TEN"},"location":"Nissan Stadium"},{"id":"40370","date":"2017-09-10","time":"1:00PM","awayTeam":{"ID":"71","City":"Tampa Bay","Name":"Buccaneers","Abbreviation":"TB"},"homeTeam":{"ID":"49","City":"Miami","Name":"Dolphins","Abbreviation":"MIA"},"location":"Sun Life Stadium"},{"id":"40371","date":"2017-09-10","time":"1:00PM","awayTeam":{"ID":"66","City":"Jacksonville","Name":"Jaguars","Abbreviation":"JAX"},"homeTeam":{"ID":"64","City":"Houston","Name":"Texans","Abbreviation":"HOU"},"location":"NRG Stadium"},{"id":"40372","date":"2017-09-10","time":"1:00PM","awayTeam":{"ID":"76","City":"Arizona","Name":"Cardinals","Abbreviation":"ARI"},"homeTeam":{"ID":"61","City":"Detroit","Name":"Lions","Abbreviation":"DET"},"location":"Ford Field"},{"id":"40373","date":"2017-09-10","time":"1:00PM","awayTeam":{"ID":"68","City":"Atlanta","Name":"Falcons","Abbreviation":"ATL"},"homeTeam":{"ID":"60","City":"Chicago","Name":"Bears","Abbreviation":"CHI"},"location":"Soldier Field"},{"id":"40374","date":"2017-09-10","time":"1:00PM","awayTeam":{"ID":"56","City":"Baltimore","Name":"Ravens","Abbreviation":"BAL"},"homeTeam":{"ID":"57","City":"Cincinnati","Name":"Bengals","Abbreviation":"CIN"},"location":"Paul Brown Stadium"},{"id":"40375","date":"2017-09-10","time":"1:00PM","awayTeam":{"ID":"59","City":"Pittsburgh","Name":"Steelers","Abbreviation":"PIT"},"homeTeam":{"ID":"58","City":"Cleveland","Name":"Browns","Abbreviation":"CLE"},"location":"FirstEnergy Stadium"},{"id":"40376","date":"2017-09-10","time":"4:05PM","awayTeam":{"ID":"65","City":"Indianapolis","Name":"Colts","Abbreviation":"IND"},"homeTeam":{"ID":"80","City":"Los Angeles","Name":"Rams","Abbreviation":"LAR"},"location":"Los Angeles Memorial Coliseum"},{"id":"40377","date":"2017-09-10","time":"4:25PM","awayTeam":{"ID":"79","City":"Seattle","Name":"Seahawks","Abbreviation":"SEA"},"homeTeam":{"ID":"62","City":"Green Bay","Name":"Packers","Abbreviation":"GB"},"location":"Lambeau Field"},{"id":"40378","date":"2017-09-10","time":"4:25PM","awayTeam":{"ID":"69","City":"Carolina","Name":"Panthers","Abbreviation":"CAR"},"homeTeam":{"ID":"78","City":"San Francisco","Name":"49ers","Abbreviation":"SF"},"location":"Levi's Stadium"},{"id":"40379","date":"2017-09-10","time":"8:30PM","awayTeam":{"ID":"53","City":"New York","Name":"Giants","Abbreviation":"NYG"},"homeTeam":{"ID":"52","City":"Dallas","Name":"Cowboys","Abbreviation":"DAL"},"location":"AT&T Stadium"},{"id":"40380","date":"2017-09-11","time":"7:10PM","awayTeam":{"ID":"70","City":"New Orleans","Name":"Saints","Abbreviation":"NO"},"homeTeam":{"ID":"63","City":"Minnesota","Name":"Vikings","Abbreviation":"MIN"},"location":"TCF Bank Stadium"},{"id":"40381","date":"2017-09-11","time":"10:20PM","awayTeam":{"ID":"143","City":"Los Angeles","Name":"Chargers","Abbreviation":"LAC"},"homeTeam":{"ID":"72","City":"Denver","Name":"Broncos","Abbreviation":"DEN"},"location":"Sports Authority Field"},{"id":"40382","date":"2017-09-14","time":"8:25PM","awayTeam":{"ID":"64","City":"Houston","Name":"Texans","Abbreviation":"HOU"},"homeTeam":{"ID":"57","City":"Cincinnati","Name":"Bengals","Abbreviation":"CIN"},"location":"Paul Brown Stadium"},{"id":"40384","date":"2017-09-17","time":"1:00PM","awayTeam":{"ID":"60","City":"Chicago","Name":"Bears","Abbreviation":"CHI"},"homeTeam":{"ID":"71","City":"Tampa Bay","Name":"Buccaneers","Abbreviation":"TB"},"location":"Raymond James Stadium"},{"id":"40385","date":"2017-09-17","time":"1:00PM","awayTeam":{"ID":"63","City":"Minnesota","Name":"Vikings","Abbreviation":"MIN"},"homeTeam":{"ID":"59","City":"Pittsburgh","Name":"Steelers","Abbreviation":"PIT"},"location":"Heinz Field"},{"id":"40386","date":"2017-09-17","time":"1:00PM","awayTeam":{"ID":"50","City":"New England","Name":"Patriots","Abbreviation":"NE"},"homeTeam":{"ID":"70","City":"New Orleans","Name":"Saints","Abbreviation":"NO"},"location":"Mercedes-Benz Stadium"},{"id":"40387","date":"2017-09-17","time":"1:00PM","awayTeam":{"ID":"54","City":"Philadelphia","Name":"Eagles","Abbreviation":"PHI"},"homeTeam":{"ID":"73","City":"Kansas City","Name":"Chiefs","Abbreviation":"KC"},"location":"Arrowhead Stadium"},{"id":"40388","date":"2017-09-17","time":"1:00PM","awayTeam":{"ID":"67","City":"Tennessee","Name":"Titans","Abbreviation":"TEN"},"homeTeam":{"ID":"66","City":"Jacksonville","Name":"Jaguars","Abbreviation":"JAX"},"location":"EverBank Field"},{"id":"40389","date":"2017-09-17","time":"1:00PM","awayTeam":{"ID":"76","City":"Arizona","Name":"Cardinals","Abbreviation":"ARI"},"homeTeam":{"ID":"65","City":"Indianapolis","Name":"Colts","Abbreviation":"IND"},"location":"Lucas Oil Stadium"},{"id":"40390","date":"2017-09-17","time":"1:00PM","awayTeam":{"ID":"48","City":"Buffalo","Name":"Bills","Abbreviation":"BUF"},"homeTeam":{"ID":"69","City":"Carolina","Name":"Panthers","Abbreviation":"CAR"},"location":"Bank of America Stadium"},{"id":"40634","date":"2017-09-17","time":"1:00PM","awayTeam":{"ID":"58","City":"Cleveland","Name":"Browns","Abbreviation":"CLE"},"homeTeam":{"ID":"56","City":"Baltimore","Name":"Ravens","Abbreviation":"BAL"},"location":"M&T Bank Stadium"},{"id":"40391","date":"2017-09-17","time":"4:05PM","awayTeam":{"ID":"51","City":"New York","Name":"Jets","Abbreviation":"NYJ"},"homeTeam":{"ID":"74","City":"Oakland","Name":"Raiders","Abbreviation":"OAK"},"location":"O.co Coliseum"},{"id":"40392","date":"2017-09-17","time":"4:05PM","awayTeam":{"ID":"49","City":"Miami","Name":"Dolphins","Abbreviation":"MIA"},"homeTeam":{"ID":"143","City":"Los Angeles","Name":"Chargers","Abbreviation":"LAC"},"location":"StubHub Center"},{"id":"40393","date":"2017-09-17","time":"4:25PM","awayTeam":{"ID":"78","City":"San Francisco","Name":"49ers","Abbreviation":"SF"},"homeTeam":{"ID":"79","City":"Seattle","Name":"Seahawks","Abbreviation":"SEA"},"location":"CenturyLink Field"},{"id":"40394","date":"2017-09-17","time":"4:25PM","awayTeam":{"ID":"55","City":"Washington","Name":"Redskins","Abbreviation":"WAS"},"homeTeam":{"ID":"80","City":"Los Angeles","Name":"Rams","Abbreviation":"LAR"},"location":"Los Angeles Memorial Coliseum"},{"id":"40395","date":"2017-09-17","time":"4:25PM","awayTeam":{"ID":"52","City":"Dallas","Name":"Cowboys","Abbreviation":"DAL"},"homeTeam":{"ID":"72","City":"Denver","Name":"Broncos","Abbreviation":"DEN"},"location":"Sports Authority Field"},{"id":"40396","date":"2017-09-17","time":"8:30PM","awayTeam":{"ID":"62","City":"Green Bay","Name":"Packers","Abbreviation":"GB"},"homeTeam":{"ID":"68","City":"Atlanta","Name":"Falcons","Abbreviation":"ATL"},"location":"Georgia Dome"},{"id":"40397","date":"2017-09-18","time":"8:30PM","awayTeam":{"ID":"61","City":"Detroit","Name":"Lions","Abbreviation":"DET"},"homeTeam":{"ID":"53","City":"New York","Name":"Giants","Abbreviation":"NYG"},"location":"MetLife Stadium"},{"id":"40398","date":"2017-09-21","time":"8:25PM","awayTeam":{"ID":"80","City":"Los Angeles","Name":"Rams","Abbreviation":"LAR"},"homeTeam":{"ID":"78","City":"San Francisco","Name":"49ers","Abbreviation":"SF"},"location":"Levi's Stadium"},{"id":"40399","date":"2017-09-24","time":"9:30AM","awayTeam":{"ID":"56","City":"Baltimore","Name":"Ravens","Abbreviation":"BAL"},"homeTeam":{"ID":"66","City":"Jacksonville","Name":"Jaguars","Abbreviation":"JAX"},"location":"EverBank Field"},{"id":"40400","date":"2017-09-24","time":"1:00PM","awayTeam":{"ID":"58","City":"Cleveland","Name":"Browns","Abbreviation":"CLE"},"homeTeam":{"ID":"65","City":"Indianapolis","Name":"Colts","Abbreviation":"IND"},"location":"Lucas Oil Stadium"},{"id":"40401","date":"2017-09-24","time":"1:00PM","awayTeam":{"ID":"53","City":"New York","Name":"Giants","Abbreviation":"NYG"},"homeTeam":{"ID":"54","City":"Philadelphia","Name":"Eagles","Abbreviation":"PHI"},"location":"Lincoln Financial Field"},{"id":"40402","date":"2017-09-24","time":"1:00PM","awayTeam":{"ID":"49","City":"Miami","Name":"Dolphins","Abbreviation":"MIA"},"homeTeam":{"ID":"51","City":"New York","Name":"Jets","Abbreviation":"NYJ"},"location":"MetLife Stadium"},{"id":"40403","date":"2017-09-24","time":"1:00PM","awayTeam":{"ID":"72","City":"Denver","Name":"Broncos","Abbreviation":"DEN"},"homeTeam":{"ID":"48","City":"Buffalo","Name":"Bills","Abbreviation":"BUF"},"location":"Ralph Wilson Stadium"},{"id":"40404","date":"2017-09-24","time":"1:00PM","awayTeam":{"ID":"70","City":"New Orleans","Name":"Saints","Abbreviation":"NO"},"homeTeam":{"ID":"69","City":"Carolina","Name":"Panthers","Abbreviation":"CAR"},"location":"Bank of America Stadium"},{"id":"40405","date":"2017-09-24","time":"1:00PM","awayTeam":{"ID":"59","City":"Pittsburgh","Name":"Steelers","Abbreviation":"PIT"},"homeTeam":{"ID":"60","City":"Chicago","Name":"Bears","Abbreviation":"CHI"},"location":"Soldier Field"},{"id":"40406","date":"2017-09-24","time":"1:00PM","awayTeam":{"ID":"68","City":"Atlanta","Name":"Falcons","Abbreviation":"ATL"},"homeTeam":{"ID":"61","City":"Detroit","Name":"Lions","Abbreviation":"DET"},"location":"Ford Field"},{"id":"40407","date":"2017-09-24","time":"1:00PM","awayTeam":{"ID":"71","City":"Tampa Bay","Name":"Buccaneers","Abbreviation":"TB"},"homeTeam":{"ID":"63","City":"Minnesota","Name":"Vikings","Abbreviation":"MIN"},"location":"TCF Bank Stadium"},{"id":"40408","date":"2017-09-24","time":"1:00PM","awayTeam":{"ID":"64","City":"Houston","Name":"Texans","Abbreviation":"HOU"},"homeTeam":{"ID":"50","City":"New England","Name":"Patriots","Abbreviation":"NE"},"location":"Gillette Stadium"},{"id":"40409","date":"2017-09-24","time":"4:05PM","awayTeam":{"ID":"79","City":"Seattle","Name":"Seahawks","Abbreviation":"SEA"},"homeTeam":{"ID":"67","City":"Tennessee","Name":"Titans","Abbreviation":"TEN"},"location":"Nissan Stadium"},{"id":"40410","date":"2017-09-24","time":"4:25PM","awayTeam":{"ID":"57","City":"Cincinnati","Name":"Bengals","Abbreviation":"CIN"},"homeTeam":{"ID":"62","City":"Green Bay","Name":"Packers","Abbreviation":"GB"},"location":"Lambeau Field"},{"id":"40411","date":"2017-09-24","time":"4:25PM","awayTeam":{"ID":"73","City":"Kansas City","Name":"Chiefs","Abbreviation":"KC"},"homeTeam":{"ID":"143","City":"Los Angeles","Name":"Chargers","Abbreviation":"LAC"},"location":"StubHub Center"},{"id":"40412","date":"2017-09-24","time":"8:30PM","awayTeam":{"ID":"74","City":"Oakland","Name":"Raiders","Abbreviation":"OAK"},"homeTeam":{"ID":"55","City":"Washington","Name":"Redskins","Abbreviation":"WAS"},"location":"FedEx Field"},{"id":"40413","date":"2017-09-25","time":"8:30PM","awayTeam":{"ID":"52","City":"Dallas","Name":"Cowboys","Abbreviation":"DAL"},"homeTeam":{"ID":"76","City":"Arizona","Name":"Cardinals","Abbreviation":"ARI"},"location":"University of Phoenix Stadium"},{"id":"40414","date":"2017-09-28","time":"8:25PM","awayTeam":{"ID":"60","City":"Chicago","Name":"Bears","Abbreviation":"CHI"},"homeTeam":{"ID":"62","City":"Green Bay","Name":"Packers","Abbreviation":"GB"},"location":"Lambeau Field"},{"id":"40415","date":"2017-10-01","time":"9:30AM","awayTeam":{"ID":"70","City":"New Orleans","Name":"Saints","Abbreviation":"NO"},"homeTeam":{"ID":"49","City":"Miami","Name":"Dolphins","Abbreviation":"MIA"},"location":"Sun Life Stadium"},{"id":"40416","date":"2017-10-01","time":"1:00PM","awayTeam":{"ID":"67","City":"Tennessee","Name":"Titans","Abbreviation":"TEN"},"homeTeam":{"ID":"64","City":"Houston","Name":"Texans","Abbreviation":"HOU"},"location":"NRG Stadium"},{"id":"40417","date":"2017-10-01","time":"1:00PM","awayTeam":{"ID":"66","City":"Jacksonville","Name":"Jaguars","Abbreviation":"JAX"},"homeTeam":{"ID":"51","City":"New York","Name":"Jets","Abbreviation":"NYJ"},"location":"MetLife Stadium"},{"id":"40418","date":"2017-10-01","time":"1:00PM","awayTeam":{"ID":"69","City":"Carolina","Name":"Panthers","Abbreviation":"CAR"},"homeTeam":{"ID":"50","City":"New England","Name":"Patriots","Abbreviation":"NE"},"location":"Gillette Stadium"},{"id":"40419","date":"2017-10-01","time":"1:00PM","awayTeam":{"ID":"61","City":"Detroit","Name":"Lions","Abbreviation":"DET"},"homeTeam":{"ID":"63","City":"Minnesota","Name":"Vikings","Abbreviation":"MIN"},"location":"TCF Bank Stadium"},{"id":"40420","date":"2017-10-01","time":"1:00PM","awayTeam":{"ID":"48","City":"Buffalo","Name":"Bills","Abbreviation":"BUF"},"homeTeam":{"ID":"68","City":"Atlanta","Name":"Falcons","Abbreviation":"ATL"},"location":"Georgia Dome"},{"id":"40421","date":"2017-10-01","time":"1:00PM","awayTeam":{"ID":"59","City":"Pittsburgh","Name":"Steelers","Abbreviation":"PIT"},"homeTeam":{"ID":"56","City":"Baltimore","Name":"Ravens","Abbreviation":"BAL"},"location":"M&T Bank Stadium"},{"id":"40422","date":"2017-10-01","time":"1:00PM","awayTeam":{"ID":"57","City":"Cincinnati","Name":"Bengals","Abbreviation":"CIN"},"homeTeam":{"ID":"58","City":"Cleveland","Name":"Browns","Abbreviation":"CLE"},"location":"FirstEnergy Stadium"},{"id":"40423","date":"2017-10-01","time":"1:00PM","awayTeam":{"ID":"80","City":"Los Angeles","Name":"Rams","Abbreviation":"LAR"},"homeTeam":{"ID":"52","City":"Dallas","Name":"Cowboys","Abbreviation":"DAL"},"location":"AT&T Stadium"},{"id":"40424","date":"2017-10-01","time":"4:05PM","awayTeam":{"ID":"54","City":"Philadelphia","Name":"Eagles","Abbreviation":"PHI"},"homeTeam":{"ID":"143","City":"Los Angeles","Name":"Chargers","Abbreviation":"LAC"},"location":"StubHub Center"},{"id":"40425","date":"2017-10-01","time":"4:05PM","awayTeam":{"ID":"53","City":"New York","Name":"Giants","Abbreviation":"NYG"},"homeTeam":{"ID":"71","City":"Tampa Bay","Name":"Buccaneers","Abbreviation":"TB"},"location":"Raymond James Stadium"},{"id":"40426","date":"2017-10-01","time":"4:05PM","awayTeam":{"ID":"78","City":"San Francisco","Name":"49ers","Abbreviation":"SF"},"homeTeam":{"ID":"76","City":"Arizona","Name":"Cardinals","Abbreviation":"ARI"},"location":"University of Phoenix Stadium"},{"id":"40427","date":"2017-10-01","time":"4:25PM","awayTeam":{"ID":"74","City":"Oakland","Name":"Raiders","Abbreviation":"OAK"},"homeTeam":{"ID":"72","City":"Denver","Name":"Broncos","Abbreviation":"DEN"},"location":"Sports Authority Field"},{"id":"40428","date":"2017-10-01","time":"8:30PM","awayTeam":{"ID":"65","City":"Indianapolis","Name":"Colts","Abbreviation":"IND"},"homeTeam":{"ID":"79","City":"Seattle","Name":"Seahawks","Abbreviation":"SEA"},"location":"CenturyLink Field"},{"id":"40429","date":"2017-10-02","time":"8:30PM","awayTeam":{"ID":"55","City":"Washington","Name":"Redskins","Abbreviation":"WAS"},"homeTeam":{"ID":"73","City":"Kansas City","Name":"Chiefs","Abbreviation":"KC"},"location":"Arrowhead Stadium"},{"id":"40430","date":"2017-10-05","time":"8:25PM","awayTeam":{"ID":"50","City":"New England","Name":"Patriots","Abbreviation":"NE"},"homeTeam":{"ID":"71","City":"Tampa Bay","Name":"Buccaneers","Abbreviation":"TB"},"location":"Raymond James Stadium"},{"id":"40431","date":"2017-10-08","time":"1:00PM","awayTeam":{"ID":"51","City":"New York","Name":"Jets","Abbreviation":"NYJ"},"homeTeam":{"ID":"58","City":"Cleveland","Name":"Browns","Abbreviation":"CLE"},"location":"FirstEnergy Stadium"},{"id":"40432","date":"2017-10-08","time":"1:00PM","awayTeam":{"ID":"69","City":"Carolina","Name":"Panthers","Abbreviation":"CAR"},"homeTeam":{"ID":"61","City":"Detroit","Name":"Lions","Abbreviation":"DET"},"location":"Ford Field"},{"id":"40433","date":"2017-10-08","time":"1:00PM","awayTeam":{"ID":"78","City":"San Francisco","Name":"49ers","Abbreviation":"SF"},"homeTeam":{"ID":"65","City":"Indianapolis","Name":"Colts","Abbreviation":"IND"},"location":"Lucas Oil Stadium"},{"id":"40434","date":"2017-10-08","time":"1:00PM","awayTeam":{"ID":"67","City":"Tennessee","Name":"Titans","Abbreviation":"TEN"},"homeTeam":{"ID":"49","City":"Miami","Name":"Dolphins","Abbreviation":"MIA"},"location":"Sun Life Stadium"},{"id":"40435","date":"2017-10-08","time":"1:00PM","awayTeam":{"ID":"48","City":"Buffalo","Name":"Bills","Abbreviation":"BUF"},"homeTeam":{"ID":"57","City":"Cincinnati","Name":"Bengals","Abbreviation":"CIN"},"location":"Paul Brown Stadium"},{"id":"40436","date":"2017-10-08","time":"1:00PM","awayTeam":{"ID":"143","City":"Los Angeles","Name":"Chargers","Abbreviation":"LAC"},"homeTeam":{"ID":"53","City":"New York","Name":"Giants","Abbreviation":"NYG"},"location":"MetLife Stadium"},{"id":"40437","date":"2017-10-08","time":"1:00PM","awayTeam":{"ID":"66","City":"Jacksonville","Name":"Jaguars","Abbreviation":"JAX"},"homeTeam":{"ID":"59","City":"Pittsburgh","Name":"Steelers","Abbreviation":"PIT"},"location":"Heinz Field"},{"id":"40438","date":"2017-10-08","time":"1:00PM","awayTeam":{"ID":"76","City":"Arizona","Name":"Cardinals","Abbreviation":"ARI"},"homeTeam":{"ID":"54","City":"Philadelphia","Name":"Eagles","Abbreviation":"PHI"},"location":"Lincoln Financial Field"},{"id":"40439","date":"2017-10-08","time":"4:05PM","awayTeam":{"ID":"79","City":"Seattle","Name":"Seahawks","Abbreviation":"SEA"},"homeTeam":{"ID":"80","City":"Los Angeles","Name":"Rams","Abbreviation":"LAR"},"location":"Los Angeles Memorial Coliseum"},{"id":"40440","date":"2017-10-08","time":"4:05PM","awayTeam":{"ID":"56","City":"Baltimore","Name":"Ravens","Abbreviation":"BAL"},"homeTeam":{"ID":"74","City":"Oakland","Name":"Raiders","Abbreviation":"OAK"},"location":"O.co Coliseum"},{"id":"40441","date":"2017-10-08","time":"4:25PM","awayTeam":{"ID":"62","City":"Green Bay","Name":"Packers","Abbreviation":"GB"},"homeTeam":{"ID":"52","City":"Dallas","Name":"Cowboys","Abbreviation":"DAL"},"location":"AT&T Stadium"},{"id":"40442","date":"2017-10-08","time":"8:30PM","awayTeam":{"ID":"73","City":"Kansas City","Name":"Chiefs","Abbreviation":"KC"},"homeTeam":{"ID":"64","City":"Houston","Name":"Texans","Abbreviation":"HOU"},"location":"NRG Stadium"},{"id":"40443","date":"2017-10-09","time":"8:30PM","awayTeam":{"ID":"63","City":"Minnesota","Name":"Vikings","Abbreviation":"MIN"},"homeTeam":{"ID":"60","City":"Chicago","Name":"Bears","Abbreviation":"CHI"},"location":"Soldier Field"},{"id":"40444","date":"2017-10-12","time":"8:25PM","awayTeam":{"ID":"54","City":"Philadelphia","Name":"Eagles","Abbreviation":"PHI"},"homeTeam":{"ID":"69","City":"Carolina","Name":"Panthers","Abbreviation":"CAR"},"location":"Bank of America Stadium"},{"id":"40445","date":"2017-10-15","time":"1:00PM","awayTeam":{"ID":"60","City":"Chicago","Name":"Bears","Abbreviation":"CHI"},"homeTeam":{"ID":"56","City":"Baltimore","Name":"Ravens","Abbreviation":"BAL"},"location":"M&T Bank Stadium"},{"id":"40446","date":"2017-10-15","time":"1:00PM","awayTeam":{"ID":"58","City":"Cleveland","Name":"Browns","Abbreviation":"CLE"},"homeTeam":{"ID":"64","City":"Houston","Name":"Texans","Abbreviation":"HOU"},"location":"NRG Stadium"},{"id":"40447","date":"2017-10-15","time":"1:00PM","awayTeam":{"ID":"62","City":"Green Bay","Name":"Packers","Abbreviation":"GB"},"homeTeam":{"ID":"63","City":"Minnesota","Name":"Vikings","Abbreviation":"MIN"},"location":"TCF Bank Stadium"},{"id":"40448","date":"2017-10-15","time":"1:00PM","awayTeam":{"ID":"61","City":"Detroit","Name":"Lions","Abbreviation":"DET"},"homeTeam":{"ID":"70","City":"New Orleans","Name":"Saints","Abbreviation":"NO"},"location":"Mercedes-Benz Stadium"},{"id":"40449","date":"2017-10-15","time":"1:00PM","awayTeam":{"ID":"49","City":"Miami","Name":"Dolphins","Abbreviation":"MIA"},"homeTeam":{"ID":"68","City":"Atlanta","Name":"Falcons","Abbreviation":"ATL"},"location":"Georgia Dome"},{"id":"40450","date":"2017-10-15","time":"1:00PM","awayTeam":{"ID":"50","City":"New England","Name":"Patriots","Abbreviation":"NE"},"homeTeam":{"ID":"51","City":"New York","Name":"Jets","Abbreviation":"NYJ"},"location":"MetLife Stadium"},{"id":"40451","date":"2017-10-15","time":"1:00PM","awayTeam":{"ID":"78","City":"San Francisco","Name":"49ers","Abbreviation":"SF"},"homeTeam":{"ID":"55","City":"Washington","Name":"Redskins","Abbreviation":"WAS"},"location":"FedEx Field"},{"id":"40452","date":"2017-10-15","time":"4:05PM","awayTeam":{"ID":"71","City":"Tampa Bay","Name":"Buccaneers","Abbreviation":"TB"},"homeTeam":{"ID":"76","City":"Arizona","Name":"Cardinals","Abbreviation":"ARI"},"location":"University of Phoenix Stadium"},{"id":"40453","date":"2017-10-15","time":"4:05PM","awayTeam":{"ID":"80","City":"Los Angeles","Name":"Rams","Abbreviation":"LAR"},"homeTeam":{"ID":"66","City":"Jacksonville","Name":"Jaguars","Abbreviation":"JAX"},"location":"EverBank Field"},{"id":"40454","date":"2017-10-15","time":"4:25PM","awayTeam":{"ID":"59","City":"Pittsburgh","Name":"Steelers","Abbreviation":"PIT"},"homeTeam":{"ID":"73","City":"Kansas City","Name":"Chiefs","Abbreviation":"KC"},"location":"Arrowhead Stadium"},{"id":"40455","date":"2017-10-15","time":"4:25PM","awayTeam":{"ID":"143","City":"Los Angeles","Name":"Chargers","Abbreviation":"LAC"},"homeTeam":{"ID":"74","City":"Oakland","Name":"Raiders","Abbreviation":"OAK"},"location":"O.co Coliseum"},{"id":"40456","date":"2017-10-15","time":"8:30PM","awayTeam":{"ID":"53","City":"New York","Name":"Giants","Abbreviation":"NYG"},"homeTeam":{"ID":"72","City":"Denver","Name":"Broncos","Abbreviation":"DEN"},"location":"Sports Authority Field"},{"id":"40457","date":"2017-10-16","time":"8:30PM","awayTeam":{"ID":"65","City":"Indianapolis","Name":"Colts","Abbreviation":"IND"},"homeTeam":{"ID":"67","City":"Tennessee","Name":"Titans","Abbreviation":"TEN"},"location":"Nissan Stadium"},{"id":"40458","date":"2017-10-19","time":"8:25PM","awayTeam":{"ID":"73","City":"Kansas City","Name":"Chiefs","Abbreviation":"KC"},"homeTeam":{"ID":"74","City":"Oakland","Name":"Raiders","Abbreviation":"OAK"},"location":"O.co Coliseum"},{"id":"40459","date":"2017-10-22","time":"1:00PM","awayTeam":{"ID":"71","City":"Tampa Bay","Name":"Buccaneers","Abbreviation":"TB"},"homeTeam":{"ID":"48","City":"Buffalo","Name":"Bills","Abbreviation":"BUF"},"location":"Ralph Wilson Stadium"},{"id":"40460","date":"2017-10-22","time":"1:00PM","awayTeam":{"ID":"57","City":"Cincinnati","Name":"Bengals","Abbreviation":"CIN"},"homeTeam":{"ID":"59","City":"Pittsburgh","Name":"Steelers","Abbreviation":"PIT"},"location":"Heinz Field"},{"id":"40461","date":"2017-10-22","time":"1:00PM","awayTeam":{"ID":"56","City":"Baltimore","Name":"Ravens","Abbreviation":"BAL"},"homeTeam":{"ID":"63","City":"Minnesota","Name":"Vikings","Abbreviation":"MIN"},"location":"TCF Bank Stadium"},{"id":"40462","date":"2017-10-22","time":"1:00PM","awayTeam":{"ID":"51","City":"New York","Name":"Jets","Abbreviation":"NYJ"},"homeTeam":{"ID":"49","City":"Miami","Name":"Dolphins","Abbreviation":"MIA"},"location":"Sun Life Stadium"},{"id":"40463","date":"2017-10-22","time":"1:00PM","awayTeam":{"ID":"76","City":"Arizona","Name":"Cardinals","Abbreviation":"ARI"},"homeTeam":{"ID":"80","City":"Los Angeles","Name":"Rams","Abbreviation":"LAR"},"location":"Los Angeles Memorial Coliseum"},{"id":"40464","date":"2017-10-22","time":"1:00PM","awayTeam":{"ID":"69","City":"Carolina","Name":"Panthers","Abbreviation":"CAR"},"homeTeam":{"ID":"60","City":"Chicago","Name":"Bears","Abbreviation":"CHI"},"location":"Soldier Field"},{"id":"40465","date":"2017-10-22","time":"1:00PM","awayTeam":{"ID":"67","City":"Tennessee","Name":"Titans","Abbreviation":"TEN"},"homeTeam":{"ID":"58","City":"Cleveland","Name":"Browns","Abbreviation":"CLE"},"location":"FirstEnergy Stadium"},{"id":"40466","date":"2017-10-22","time":"1:00PM","awayTeam":{"ID":"70","City":"New Orleans","Name":"Saints","Abbreviation":"NO"},"homeTeam":{"ID":"62","City":"Green Bay","Name":"Packers","Abbreviation":"GB"},"location":"Lambeau Field"},{"id":"40467","date":"2017-10-22","time":"1:00PM","awayTeam":{"ID":"66","City":"Jacksonville","Name":"Jaguars","Abbreviation":"JAX"},"homeTeam":{"ID":"65","City":"Indianapolis","Name":"Colts","Abbreviation":"IND"},"location":"Lucas Oil Stadium"},{"id":"40468","date":"2017-10-22","time":"4:05PM","awayTeam":{"ID":"52","City":"Dallas","Name":"Cowboys","Abbreviation":"DAL"},"homeTeam":{"ID":"78","City":"San Francisco","Name":"49ers","Abbreviation":"SF"},"location":"Levi's Stadium"},{"id":"40469","date":"2017-10-22","time":"4:25PM","awayTeam":{"ID":"79","City":"Seattle","Name":"Seahawks","Abbreviation":"SEA"},"homeTeam":{"ID":"53","City":"New York","Name":"Giants","Abbreviation":"NYG"},"location":"MetLife Stadium"},{"id":"40470","date":"2017-10-22","time":"4:25PM","awayTeam":{"ID":"72","City":"Denver","Name":"Broncos","Abbreviation":"DEN"},"homeTeam":{"ID":"143","City":"Los Angeles","Name":"Chargers","Abbreviation":"LAC"},"location":"StubHub Center"},{"id":"40471","date":"2017-10-22","time":"8:30PM","awayTeam":{"ID":"68","City":"Atlanta","Name":"Falcons","Abbreviation":"ATL"},"homeTeam":{"ID":"50","City":"New England","Name":"Patriots","Abbreviation":"NE"},"location":"Gillette Stadium"},{"id":"40472","date":"2017-10-23","time":"8:30PM","awayTeam":{"ID":"55","City":"Washington","Name":"Redskins","Abbreviation":"WAS"},"homeTeam":{"ID":"54","City":"Philadelphia","Name":"Eagles","Abbreviation":"PHI"},"location":"Lincoln Financial Field"},{"id":"40473","date":"2017-10-26","time":"8:25PM","awayTeam":{"ID":"49","City":"Miami","Name":"Dolphins","Abbreviation":"MIA"},"homeTeam":{"ID":"56","City":"Baltimore","Name":"Ravens","Abbreviation":"BAL"},"location":"M&T Bank Stadium"},{"id":"40474","date":"2017-10-29","time":"9:30AM","awayTeam":{"ID":"63","City":"Minnesota","Name":"Vikings","Abbreviation":"MIN"},"homeTeam":{"ID":"58","City":"Cleveland","Name":"Browns","Abbreviation":"CLE"},"location":"FirstEnergy Stadium"},{"id":"40475","date":"2017-10-29","time":"1:00PM","awayTeam":{"ID":"68","City":"Atlanta","Name":"Falcons","Abbreviation":"ATL"},"homeTeam":{"ID":"51","City":"New York","Name":"Jets","Abbreviation":"NYJ"},"location":"MetLife Stadium"},{"id":"40476","date":"2017-10-29","time":"1:00PM","awayTeam":{"ID":"69","City":"Carolina","Name":"Panthers","Abbreviation":"CAR"},"homeTeam":{"ID":"71","City":"Tampa Bay","Name":"Buccaneers","Abbreviation":"TB"},"location":"Raymond James Stadium"},{"id":"40477","date":"2017-10-29","time":"1:00PM","awayTeam":{"ID":"78","City":"San Francisco","Name":"49ers","Abbreviation":"SF"},"homeTeam":{"ID":"54","City":"Philadelphia","Name":"Eagles","Abbreviation":"PHI"},"location":"Lincoln Financial Field"},{"id":"40478","date":"2017-10-29","time":"1:00PM","awayTeam":{"ID":"60","City":"Chicago","Name":"Bears","Abbreviation":"CHI"},"homeTeam":{"ID":"70","City":"New Orleans","Name":"Saints","Abbreviation":"NO"},"location":"Mercedes-Benz Stadium"},{"id":"40479","date":"2017-10-29","time":"1:00PM","awayTeam":{"ID":"143","City":"Los Angeles","Name":"Chargers","Abbreviation":"LAC"},"homeTeam":{"ID":"50","City":"New England","Name":"Patriots","Abbreviation":"NE"},"location":"Gillette Stadium"},{"id":"40480","date":"2017-10-29","time":"1:00PM","awayTeam":{"ID":"74","City":"Oakland","Name":"Raiders","Abbreviation":"OAK"},"homeTeam":{"ID":"48","City":"Buffalo","Name":"Bills","Abbreviation":"BUF"},"location":"Ralph Wilson Stadium"},{"id":"40481","date":"2017-10-29","time":"1:00PM","awayTeam":{"ID":"65","City":"Indianapolis","Name":"Colts","Abbreviation":"IND"},"homeTeam":{"ID":"57","City":"Cincinnati","Name":"Bengals","Abbreviation":"CIN"},"location":"Paul Brown Stadium"},{"id":"40482","date":"2017-10-29","time":"4:05PM","awayTeam":{"ID":"64","City":"Houston","Name":"Texans","Abbreviation":"HOU"},"homeTeam":{"ID":"79","City":"Seattle","Name":"Seahawks","Abbreviation":"SEA"},"location":"CenturyLink Field"},{"id":"40483","date":"2017-10-29","time":"4:25PM","awayTeam":{"ID":"52","City":"Dallas","Name":"Cowboys","Abbreviation":"DAL"},"homeTeam":{"ID":"55","City":"Washington","Name":"Redskins","Abbreviation":"WAS"},"location":"FedEx Field"},{"id":"40484","date":"2017-10-29","time":"8:30PM","awayTeam":{"ID":"59","City":"Pittsburgh","Name":"Steelers","Abbreviation":"PIT"},"homeTeam":{"ID":"61","City":"Detroit","Name":"Lions","Abbreviation":"DET"},"location":"Ford Field"},{"id":"40485","date":"2017-10-30","time":"8:30PM","awayTeam":{"ID":"72","City":"Denver","Name":"Broncos","Abbreviation":"DEN"},"homeTeam":{"ID":"73","City":"Kansas City","Name":"Chiefs","Abbreviation":"KC"},"location":"Arrowhead Stadium"},{"id":"40486","date":"2017-11-02","time":"8:25PM","awayTeam":{"ID":"48","City":"Buffalo","Name":"Bills","Abbreviation":"BUF"},"homeTeam":{"ID":"51","City":"New York","Name":"Jets","Abbreviation":"NYJ"},"location":"MetLife Stadium"},{"id":"40487","date":"2017-11-05","time":"1:00PM","awayTeam":{"ID":"65","City":"Indianapolis","Name":"Colts","Abbreviation":"IND"},"homeTeam":{"ID":"64","City":"Houston","Name":"Texans","Abbreviation":"HOU"},"location":"NRG Stadium"},{"id":"40488","date":"2017-11-05","time":"1:00PM","awayTeam":{"ID":"57","City":"Cincinnati","Name":"Bengals","Abbreviation":"CIN"},"homeTeam":{"ID":"66","City":"Jacksonville","Name":"Jaguars","Abbreviation":"JAX"},"location":"EverBank Field"},{"id":"40489","date":"2017-11-05","time":"1:00PM","awayTeam":{"ID":"71","City":"Tampa Bay","Name":"Buccaneers","Abbreviation":"TB"},"homeTeam":{"ID":"70","City":"New Orleans","Name":"Saints","Abbreviation":"NO"},"location":"Mercedes-Benz Stadium"},{"id":"40490","date":"2017-11-05","time":"1:00PM","awayTeam":{"ID":"72","City":"Denver","Name":"Broncos","Abbreviation":"DEN"},"homeTeam":{"ID":"54","City":"Philadelphia","Name":"Eagles","Abbreviation":"PHI"},"location":"Lincoln Financial Field"},{"id":"40491","date":"2017-11-05","time":"1:00PM","awayTeam":{"ID":"56","City":"Baltimore","Name":"Ravens","Abbreviation":"BAL"},"homeTeam":{"ID":"67","City":"Tennessee","Name":"Titans","Abbreviation":"TEN"},"location":"Nissan Stadium"},{"id":"40635","date":"2017-11-05","time":"1:00PM","awayTeam":{"ID":"80","City":"Los Angeles","Name":"Rams","Abbreviation":"LAR"},"homeTeam":{"ID":"53","City":"New York","Name":"Giants","Abbreviation":"NYG"},"location":"MetLife Stadium"},{"id":"40636","date":"2017-11-05","time":"1:00PM","awayTeam":{"ID":"68","City":"Atlanta","Name":"Falcons","Abbreviation":"ATL"},"homeTeam":{"ID":"69","City":"Carolina","Name":"Panthers","Abbreviation":"CAR"},"location":"Bank of America Stadium"},{"id":"40492","date":"2017-11-05","time":"4:05PM","awayTeam":{"ID":"76","City":"Arizona","Name":"Cardinals","Abbreviation":"ARI"},"homeTeam":{"ID":"78","City":"San Francisco","Name":"49ers","Abbreviation":"SF"},"location":"Levi's Stadium"},{"id":"40493","date":"2017-11-05","time":"4:05PM","awayTeam":{"ID":"55","City":"Washington","Name":"Redskins","Abbreviation":"WAS"},"homeTeam":{"ID":"79","City":"Seattle","Name":"Seahawks","Abbreviation":"SEA"},"location":"CenturyLink Field"},{"id":"40494","date":"2017-11-05","time":"4:25PM","awayTeam":{"ID":"73","City":"Kansas City","Name":"Chiefs","Abbreviation":"KC"},"homeTeam":{"ID":"52","City":"Dallas","Name":"Cowboys","Abbreviation":"DAL"},"location":"AT&T Stadium"},{"id":"40495","date":"2017-11-05","time":"8:30PM","awayTeam":{"ID":"74","City":"Oakland","Name":"Raiders","Abbreviation":"OAK"},"homeTeam":{"ID":"49","City":"Miami","Name":"Dolphins","Abbreviation":"MIA"},"location":"Sun Life Stadium"},{"id":"40496","date":"2017-11-06","time":"8:30PM","awayTeam":{"ID":"61","City":"Detroit","Name":"Lions","Abbreviation":"DET"},"homeTeam":{"ID":"62","City":"Green Bay","Name":"Packers","Abbreviation":"GB"},"location":"Lambeau Field"},{"id":"40497","date":"2017-11-09","time":"8:25PM","awayTeam":{"ID":"79","City":"Seattle","Name":"Seahawks","Abbreviation":"SEA"},"homeTeam":{"ID":"76","City":"Arizona","Name":"Cardinals","Abbreviation":"ARI"},"location":"University of Phoenix Stadium"},{"id":"40498","date":"2017-11-12","time":"1:00PM","awayTeam":{"ID":"62","City":"Green Bay","Name":"Packers","Abbreviation":"GB"},"homeTeam":{"ID":"60","City":"Chicago","Name":"Bears","Abbreviation":"CHI"},"location":"Soldier Field"},{"id":"40499","date":"2017-11-12","time":"1:00PM","awayTeam":{"ID":"58","City":"Cleveland","Name":"Browns","Abbreviation":"CLE"},"homeTeam":{"ID":"61","City":"Detroit","Name":"Lions","Abbreviation":"DET"},"location":"Ford Field"},{"id":"40500","date":"2017-11-12","time":"1:00PM","awayTeam":{"ID":"59","City":"Pittsburgh","Name":"Steelers","Abbreviation":"PIT"},"homeTeam":{"ID":"65","City":"Indianapolis","Name":"Colts","Abbreviation":"IND"},"location":"Lucas Oil Stadium"},{"id":"40501","date":"2017-11-12","time":"1:00PM","awayTeam":{"ID":"143","City":"Los Angeles","Name":"Chargers","Abbreviation":"LAC"},"homeTeam":{"ID":"66","City":"Jacksonville","Name":"Jaguars","Abbreviation":"JAX"},"location":"EverBank Field"},{"id":"40502","date":"2017-11-12","time":"1:00PM","awayTeam":{"ID":"70","City":"New Orleans","Name":"Saints","Abbreviation":"NO"},"homeTeam":{"ID":"48","City":"Buffalo","Name":"Bills","Abbreviation":"BUF"},"location":"Ralph Wilson Stadium"},{"id":"40503","date":"2017-11-12","time":"1:00PM","awayTeam":{"ID":"51","City":"New York","Name":"Jets","Abbreviation":"NYJ"},"homeTeam":{"ID":"71","City":"Tampa Bay","Name":"Buccaneers","Abbreviation":"TB"},"location":"Raymond James Stadium"},{"id":"40504","date":"2017-11-12","time":"1:00PM","awayTeam":{"ID":"63","City":"Minnesota","Name":"Vikings","Abbreviation":"MIN"},"homeTeam":{"ID":"55","City":"Washington","Name":"Redskins","Abbreviation":"WAS"},"location":"FedEx Field"},{"id":"40505","date":"2017-11-12","time":"1:00PM","awayTeam":{"ID":"57","City":"Cincinnati","Name":"Bengals","Abbreviation":"CIN"},"homeTeam":{"ID":"67","City":"Tennessee","Name":"Titans","Abbreviation":"TEN"},"location":"Nissan Stadium"},{"id":"40506","date":"2017-11-12","time":"4:05PM","awayTeam":{"ID":"64","City":"Houston","Name":"Texans","Abbreviation":"HOU"},"homeTeam":{"ID":"80","City":"Los Angeles","Name":"Rams","Abbreviation":"LAR"},"location":"Los Angeles Memorial Coliseum"},{"id":"40507","date":"2017-11-12","time":"4:25PM","awayTeam":{"ID":"52","City":"Dallas","Name":"Cowboys","Abbreviation":"DAL"},"homeTeam":{"ID":"68","City":"Atlanta","Name":"Falcons","Abbreviation":"ATL"},"location":"Georgia Dome"},{"id":"40508","date":"2017-11-12","time":"4:25PM","awayTeam":{"ID":"53","City":"New York","Name":"Giants","Abbreviation":"NYG"},"homeTeam":{"ID":"78","City":"San Francisco","Name":"49ers","Abbreviation":"SF"},"location":"Levi's Stadium"},{"id":"40509","date":"2017-11-12","time":"8:30PM","awayTeam":{"ID":"50","City":"New England","Name":"Patriots","Abbreviation":"NE"},"homeTeam":{"ID":"72","City":"Denver","Name":"Broncos","Abbreviation":"DEN"},"location":"Sports Authority Field"},{"id":"40510","date":"2017-11-13","time":"8:30PM","awayTeam":{"ID":"49","City":"Miami","Name":"Dolphins","Abbreviation":"MIA"},"homeTeam":{"ID":"69","City":"Carolina","Name":"Panthers","Abbreviation":"CAR"},"location":"Bank of America Stadium"},{"id":"40511","date":"2017-11-16","time":"8:25PM","awayTeam":{"ID":"67","City":"Tennessee","Name":"Titans","Abbreviation":"TEN"},"homeTeam":{"ID":"59","City":"Pittsburgh","Name":"Steelers","Abbreviation":"PIT"},"location":"Heinz Field"},{"id":"40512","date":"2017-11-19","time":"1:00PM","awayTeam":{"ID":"66","City":"Jacksonville","Name":"Jaguars","Abbreviation":"JAX"},"homeTeam":{"ID":"58","City":"Cleveland","Name":"Browns","Abbreviation":"CLE"},"location":"FirstEnergy Stadium"},{"id":"40513","date":"2017-11-19","time":"1:00PM","awayTeam":{"ID":"56","City":"Baltimore","Name":"Ravens","Abbreviation":"BAL"},"homeTeam":{"ID":"62","City":"Green Bay","Name":"Packers","Abbreviation":"GB"},"location":"Lambeau Field"},{"id":"40514","date":"2017-11-19","time":"1:00PM","awayTeam":{"ID":"76","City":"Arizona","Name":"Cardinals","Abbreviation":"ARI"},"homeTeam":{"ID":"64","City":"Houston","Name":"Texans","Abbreviation":"HOU"},"location":"NRG Stadium"},{"id":"40515","date":"2017-11-19","time":"1:00PM","awayTeam":{"ID":"80","City":"Los Angeles","Name":"Rams","Abbreviation":"LAR"},"homeTeam":{"ID":"63","City":"Minnesota","Name":"Vikings","Abbreviation":"MIN"},"location":"TCF Bank Stadium"},{"id":"40516","date":"2017-11-19","time":"1:00PM","awayTeam":{"ID":"61","City":"Detroit","Name":"Lions","Abbreviation":"DET"},"homeTeam":{"ID":"60","City":"Chicago","Name":"Bears","Abbreviation":"CHI"},"location":"Soldier Field"},{"id":"40517","date":"2017-11-19","time":"1:00PM","awayTeam":{"ID":"55","City":"Washington","Name":"Redskins","Abbreviation":"WAS"},"homeTeam":{"ID":"70","City":"New Orleans","Name":"Saints","Abbreviation":"NO"},"location":"Mercedes-Benz Stadium"},{"id":"40518","date":"2017-11-19","time":"1:00PM","awayTeam":{"ID":"73","City":"Kansas City","Name":"Chiefs","Abbreviation":"KC"},"homeTeam":{"ID":"53","City":"New York","Name":"Giants","Abbreviation":"NYG"},"location":"MetLife Stadium"},{"id":"40519","date":"2017-11-19","time":"4:05PM","awayTeam":{"ID":"48","City":"Buffalo","Name":"Bills","Abbreviation":"BUF"},"homeTeam":{"ID":"143","City":"Los Angeles","Name":"Chargers","Abbreviation":"LAC"},"location":"StubHub Center"},{"id":"40520","date":"2017-11-19","time":"4:25PM","awayTeam":{"ID":"57","City":"Cincinnati","Name":"Bengals","Abbreviation":"CIN"},"homeTeam":{"ID":"72","City":"Denver","Name":"Broncos","Abbreviation":"DEN"},"location":"Sports Authority Field"},{"id":"40521","date":"2017-11-19","time":"4:25PM","awayTeam":{"ID":"50","City":"New England","Name":"Patriots","Abbreviation":"NE"},"homeTeam":{"ID":"74","City":"Oakland","Name":"Raiders","Abbreviation":"OAK"},"location":"O.co Coliseum"},{"id":"40522","date":"2017-11-19","time":"8:30PM","awayTeam":{"ID":"54","City":"Philadelphia","Name":"Eagles","Abbreviation":"PHI"},"homeTeam":{"ID":"52","City":"Dallas","Name":"Cowboys","Abbreviation":"DAL"},"location":"AT&T Stadium"},{"id":"40523","date":"2017-11-20","time":"8:30PM","awayTeam":{"ID":"68","City":"Atlanta","Name":"Falcons","Abbreviation":"ATL"},"homeTeam":{"ID":"79","City":"Seattle","Name":"Seahawks","Abbreviation":"SEA"},"location":"CenturyLink Field"},{"id":"40524","date":"2017-11-23","time":"12:30PM","awayTeam":{"ID":"63","City":"Minnesota","Name":"Vikings","Abbreviation":"MIN"},"homeTeam":{"ID":"61","City":"Detroit","Name":"Lions","Abbreviation":"DET"},"location":"Ford Field"},{"id":"40525","date":"2017-11-23","time":"4:30PM","awayTeam":{"ID":"143","City":"Los Angeles","Name":"Chargers","Abbreviation":"LAC"},"homeTeam":{"ID":"52","City":"Dallas","Name":"Cowboys","Abbreviation":"DAL"},"location":"AT&T Stadium"},{"id":"40526","date":"2017-11-23","time":"8:30PM","awayTeam":{"ID":"53","City":"New York","Name":"Giants","Abbreviation":"NYG"},"homeTeam":{"ID":"55","City":"Washington","Name":"Redskins","Abbreviation":"WAS"},"location":"FedEx Field"},{"id":"40527","date":"2017-11-26","time":"1:00PM","awayTeam":{"ID":"48","City":"Buffalo","Name":"Bills","Abbreviation":"BUF"},"homeTeam":{"ID":"73","City":"Kansas City","Name":"Chiefs","Abbreviation":"KC"},"location":"Arrowhead Stadium"},{"id":"40528","date":"2017-11-26","time":"1:00PM","awayTeam":{"ID":"67","City":"Tennessee","Name":"Titans","Abbreviation":"TEN"},"homeTeam":{"ID":"65","City":"Indianapolis","Name":"Colts","Abbreviation":"IND"},"location":"Lucas Oil Stadium"},{"id":"40529","date":"2017-11-26","time":"1:00PM","awayTeam":{"ID":"58","City":"Cleveland","Name":"Browns","Abbreviation":"CLE"},"homeTeam":{"ID":"57","City":"Cincinnati","Name":"Bengals","Abbreviation":"CIN"},"location":"Paul Brown Stadium"},{"id":"40530","date":"2017-11-26","time":"1:00PM","awayTeam":{"ID":"71","City":"Tampa Bay","Name":"Buccaneers","Abbreviation":"TB"},"homeTeam":{"ID":"68","City":"Atlanta","Name":"Falcons","Abbreviation":"ATL"},"location":"Georgia Dome"},{"id":"40531","date":"2017-11-26","time":"1:00PM","awayTeam":{"ID":"49","City":"Miami","Name":"Dolphins","Abbreviation":"MIA"},"homeTeam":{"ID":"50","City":"New England","Name":"Patriots","Abbreviation":"NE"},"location":"Gillette Stadium"},{"id":"40532","date":"2017-11-26","time":"1:00PM","awayTeam":{"ID":"60","City":"Chicago","Name":"Bears","Abbreviation":"CHI"},"homeTeam":{"ID":"54","City":"Philadelphia","Name":"Eagles","Abbreviation":"PHI"},"location":"Lincoln Financial Field"},{"id":"40533","date":"2017-11-26","time":"1:00PM","awayTeam":{"ID":"69","City":"Carolina","Name":"Panthers","Abbreviation":"CAR"},"homeTeam":{"ID":"51","City":"New York","Name":"Jets","Abbreviation":"NYJ"},"location":"MetLife Stadium"},{"id":"40534","date":"2017-11-26","time":"4:05PM","awayTeam":{"ID":"70","City":"New Orleans","Name":"Saints","Abbreviation":"NO"},"homeTeam":{"ID":"80","City":"Los Angeles","Name":"Rams","Abbreviation":"LAR"},"location":"Los Angeles Memorial Coliseum"},{"id":"40535","date":"2017-11-26","time":"4:05PM","awayTeam":{"ID":"79","City":"Seattle","Name":"Seahawks","Abbreviation":"SEA"},"homeTeam":{"ID":"78","City":"San Francisco","Name":"49ers","Abbreviation":"SF"},"location":"Levi's Stadium"},{"id":"40536","date":"2017-11-26","time":"4:25PM","awayTeam":{"ID":"66","City":"Jacksonville","Name":"Jaguars","Abbreviation":"JAX"},"homeTeam":{"ID":"76","City":"Arizona","Name":"Cardinals","Abbreviation":"ARI"},"location":"University of Phoenix Stadium"},{"id":"40537","date":"2017-11-26","time":"4:25PM","awayTeam":{"ID":"72","City":"Denver","Name":"Broncos","Abbreviation":"DEN"},"homeTeam":{"ID":"74","City":"Oakland","Name":"Raiders","Abbreviation":"OAK"},"location":"O.co Coliseum"},{"id":"40538","date":"2017-11-26","time":"8:30PM","awayTeam":{"ID":"62","City":"Green Bay","Name":"Packers","Abbreviation":"GB"},"homeTeam":{"ID":"59","City":"Pittsburgh","Name":"Steelers","Abbreviation":"PIT"},"location":"Heinz Field"},{"id":"40539","date":"2017-11-27","time":"8:30PM","awayTeam":{"ID":"64","City":"Houston","Name":"Texans","Abbreviation":"HOU"},"homeTeam":{"ID":"56","City":"Baltimore","Name":"Ravens","Abbreviation":"BAL"},"location":"M&T Bank Stadium"},{"id":"40540","date":"2017-11-30","time":"8:25PM","awayTeam":{"ID":"55","City":"Washington","Name":"Redskins","Abbreviation":"WAS"},"homeTeam":{"ID":"52","City":"Dallas","Name":"Cowboys","Abbreviation":"DAL"},"location":"AT&T Stadium"},{"id":"40541","date":"2017-12-03","time":"1:00PM","awayTeam":{"ID":"63","City":"Minnesota","Name":"Vikings","Abbreviation":"MIN"},"homeTeam":{"ID":"68","City":"Atlanta","Name":"Falcons","Abbreviation":"ATL"},"location":"Georgia Dome"},{"id":"40542","date":"2017-12-03","time":"1:00PM","awayTeam":{"ID":"64","City":"Houston","Name":"Texans","Abbreviation":"HOU"},"homeTeam":{"ID":"67","City":"Tennessee","Name":"Titans","Abbreviation":"TEN"},"location":"Nissan Stadium"},{"id":"40543","date":"2017-12-03","time":"1:00PM","awayTeam":{"ID":"73","City":"Kansas City","Name":"Chiefs","Abbreviation":"KC"},"homeTeam":{"ID":"51","City":"New York","Name":"Jets","Abbreviation":"NYJ"},"location":"MetLife Stadium"},{"id":"40544","date":"2017-12-03","time":"1:00PM","awayTeam":{"ID":"69","City":"Carolina","Name":"Panthers","Abbreviation":"CAR"},"homeTeam":{"ID":"70","City":"New Orleans","Name":"Saints","Abbreviation":"NO"},"location":"Mercedes-Benz Stadium"},{"id":"40545","date":"2017-12-03","time":"1:00PM","awayTeam":{"ID":"72","City":"Denver","Name":"Broncos","Abbreviation":"DEN"},"homeTeam":{"ID":"49","City":"Miami","Name":"Dolphins","Abbreviation":"MIA"},"location":"Sun Life Stadium"},{"id":"40546","date":"2017-12-03","time":"1:00PM","awayTeam":{"ID":"61","City":"Detroit","Name":"Lions","Abbreviation":"DET"},"homeTeam":{"ID":"56","City":"Baltimore","Name":"Ravens","Abbreviation":"BAL"},"location":"M&T Bank Stadium"},{"id":"40547","date":"2017-12-03","time":"1:00PM","awayTeam":{"ID":"50","City":"New England","Name":"Patriots","Abbreviation":"NE"},"homeTeam":{"ID":"48","City":"Buffalo","Name":"Bills","Abbreviation":"BUF"},"location":"Ralph Wilson Stadium"},{"id":"40548","date":"2017-12-03","time":"1:00PM","awayTeam":{"ID":"78","City":"San Francisco","Name":"49ers","Abbreviation":"SF"},"homeTeam":{"ID":"60","City":"Chicago","Name":"Bears","Abbreviation":"CHI"},"location":"Soldier Field"},{"id":"40549","date":"2017-12-03","time":"1:00PM","awayTeam":{"ID":"71","City":"Tampa Bay","Name":"Buccaneers","Abbreviation":"TB"},"homeTeam":{"ID":"62","City":"Green Bay","Name":"Packers","Abbreviation":"GB"},"location":"Lambeau Field"},{"id":"40550","date":"2017-12-03","time":"1:00PM","awayTeam":{"ID":"65","City":"Indianapolis","Name":"Colts","Abbreviation":"IND"},"homeTeam":{"ID":"66","City":"Jacksonville","Name":"Jaguars","Abbreviation":"JAX"},"location":"EverBank Field"},{"id":"40551","date":"2017-12-03","time":"4:05PM","awayTeam":{"ID":"58","City":"Cleveland","Name":"Browns","Abbreviation":"CLE"},"homeTeam":{"ID":"143","City":"Los Angeles","Name":"Chargers","Abbreviation":"LAC"},"location":"StubHub Center"},{"id":"40552","date":"2017-12-03","time":"4:25PM","awayTeam":{"ID":"53","City":"New York","Name":"Giants","Abbreviation":"NYG"},"homeTeam":{"ID":"74","City":"Oakland","Name":"Raiders","Abbreviation":"OAK"},"location":"O.co Coliseum"},{"id":"40553","date":"2017-12-03","time":"4:25PM","awayTeam":{"ID":"80","City":"Los Angeles","Name":"Rams","Abbreviation":"LAR"},"homeTeam":{"ID":"76","City":"Arizona","Name":"Cardinals","Abbreviation":"ARI"},"location":"University of Phoenix Stadium"},{"id":"40554","date":"2017-12-03","time":"8:30PM","awayTeam":{"ID":"54","City":"Philadelphia","Name":"Eagles","Abbreviation":"PHI"},"homeTeam":{"ID":"79","City":"Seattle","Name":"Seahawks","Abbreviation":"SEA"},"location":"CenturyLink Field"},{"id":"40555","date":"2017-12-04","time":"8:30PM","awayTeam":{"ID":"59","City":"Pittsburgh","Name":"Steelers","Abbreviation":"PIT"},"homeTeam":{"ID":"57","City":"Cincinnati","Name":"Bengals","Abbreviation":"CIN"},"location":"Paul Brown Stadium"},{"id":"40556","date":"2017-12-07","time":"8:25PM","awayTeam":{"ID":"70","City":"New Orleans","Name":"Saints","Abbreviation":"NO"},"homeTeam":{"ID":"68","City":"Atlanta","Name":"Falcons","Abbreviation":"ATL"},"location":"Georgia Dome"},{"id":"40557","date":"2017-12-10","time":"1:00PM","awayTeam":{"ID":"65","City":"Indianapolis","Name":"Colts","Abbreviation":"IND"},"homeTeam":{"ID":"48","City":"Buffalo","Name":"Bills","Abbreviation":"BUF"},"location":"Ralph Wilson Stadium"},{"id":"40558","date":"2017-12-10","time":"1:00PM","awayTeam":{"ID":"61","City":"Detroit","Name":"Lions","Abbreviation":"DET"},"homeTeam":{"ID":"71","City":"Tampa Bay","Name":"Buccaneers","Abbreviation":"TB"},"location":"Raymond James Stadium"},{"id":"40559","date":"2017-12-10","time":"1:00PM","awayTeam":{"ID":"74","City":"Oakland","Name":"Raiders","Abbreviation":"OAK"},"homeTeam":{"ID":"73","City":"Kansas City","Name":"Chiefs","Abbreviation":"KC"},"location":"Arrowhead Stadium"},{"id":"40560","date":"2017-12-10","time":"1:00PM","awayTeam":{"ID":"79","City":"Seattle","Name":"Seahawks","Abbreviation":"SEA"},"homeTeam":{"ID":"66","City":"Jacksonville","Name":"Jaguars","Abbreviation":"JAX"},"location":"EverBank Field"},{"id":"40561","date":"2017-12-10","time":"1:00PM","awayTeam":{"ID":"78","City":"San Francisco","Name":"49ers","Abbreviation":"SF"},"homeTeam":{"ID":"64","City":"Houston","Name":"Texans","Abbreviation":"HOU"},"location":"NRG Stadium"},{"id":"40562","date":"2017-12-10","time":"1:00PM","awayTeam":{"ID":"62","City":"Green Bay","Name":"Packers","Abbreviation":"GB"},"homeTeam":{"ID":"58","City":"Cleveland","Name":"Browns","Abbreviation":"CLE"},"location":"FirstEnergy Stadium"},{"id":"40563","date":"2017-12-10","time":"1:00PM","awayTeam":{"ID":"60","City":"Chicago","Name":"Bears","Abbreviation":"CHI"},"homeTeam":{"ID":"57","City":"Cincinnati","Name":"Bengals","Abbreviation":"CIN"},"location":"Paul Brown Stadium"},{"id":"40564","date":"2017-12-10","time":"1:00PM","awayTeam":{"ID":"63","City":"Minnesota","Name":"Vikings","Abbreviation":"MIN"},"homeTeam":{"ID":"69","City":"Carolina","Name":"Panthers","Abbreviation":"CAR"},"location":"Bank of America Stadium"},{"id":"40565","date":"2017-12-10","time":"4:05PM","awayTeam":{"ID":"55","City":"Washington","Name":"Redskins","Abbreviation":"WAS"},"homeTeam":{"ID":"143","City":"Los Angeles","Name":"Chargers","Abbreviation":"LAC"},"location":"StubHub Center"},{"id":"40566","date":"2017-12-10","time":"4:05PM","awayTeam":{"ID":"51","City":"New York","Name":"Jets","Abbreviation":"NYJ"},"homeTeam":{"ID":"72","City":"Denver","Name":"Broncos","Abbreviation":"DEN"},"location":"Sports Authority Field"},{"id":"40567","date":"2017-12-10","time":"4:05PM","awayTeam":{"ID":"67","City":"Tennessee","Name":"Titans","Abbreviation":"TEN"},"homeTeam":{"ID":"76","City":"Arizona","Name":"Cardinals","Abbreviation":"ARI"},"location":"University of Phoenix Stadium"},{"id":"40568","date":"2017-12-10","time":"4:25PM","awayTeam":{"ID":"52","City":"Dallas","Name":"Cowboys","Abbreviation":"DAL"},"homeTeam":{"ID":"53","City":"New York","Name":"Giants","Abbreviation":"NYG"},"location":"MetLife Stadium"},{"id":"40569","date":"2017-12-10","time":"4:25PM","awayTeam":{"ID":"54","City":"Philadelphia","Name":"Eagles","Abbreviation":"PHI"},"homeTeam":{"ID":"80","City":"Los Angeles","Name":"Rams","Abbreviation":"LAR"},"location":"Los Angeles Memorial Coliseum"},{"id":"40570","date":"2017-12-10","time":"8:30PM","awayTeam":{"ID":"56","City":"Baltimore","Name":"Ravens","Abbreviation":"BAL"},"homeTeam":{"ID":"59","City":"Pittsburgh","Name":"Steelers","Abbreviation":"PIT"},"location":"Heinz Field"},{"id":"40571","date":"2017-12-11","time":"8:30PM","awayTeam":{"ID":"50","City":"New England","Name":"Patriots","Abbreviation":"NE"},"homeTeam":{"ID":"49","City":"Miami","Name":"Dolphins","Abbreviation":"MIA"},"location":"Sun Life Stadium"},{"id":"40572","date":"2017-12-14","time":"8:25PM","awayTeam":{"ID":"72","City":"Denver","Name":"Broncos","Abbreviation":"DEN"},"homeTeam":{"ID":"65","City":"Indianapolis","Name":"Colts","Abbreviation":"IND"},"location":"Lucas Oil Stadium"},{"id":"40573","date":"2017-12-16","time":"4:30PM","awayTeam":{"ID":"60","City":"Chicago","Name":"Bears","Abbreviation":"CHI"},"homeTeam":{"ID":"61","City":"Detroit","Name":"Lions","Abbreviation":"DET"},"location":"Ford Field"},{"id":"40574","date":"2017-12-16","time":"8:25PM","awayTeam":{"ID":"143","City":"Los Angeles","Name":"Chargers","Abbreviation":"LAC"},"homeTeam":{"ID":"73","City":"Kansas City","Name":"Chiefs","Abbreviation":"KC"},"location":"Arrowhead Stadium"},{"id":"40575","date":"2017-12-17","time":"1:00PM","awayTeam":{"ID":"64","City":"Houston","Name":"Texans","Abbreviation":"HOU"},"homeTeam":{"ID":"66","City":"Jacksonville","Name":"Jaguars","Abbreviation":"JAX"},"location":"EverBank Field"},{"id":"40576","date":"2017-12-17","time":"1:00PM","awayTeam":{"ID":"56","City":"Baltimore","Name":"Ravens","Abbreviation":"BAL"},"homeTeam":{"ID":"58","City":"Cleveland","Name":"Browns","Abbreviation":"CLE"},"location":"FirstEnergy Stadium"},{"id":"40577","date":"2017-12-17","time":"1:00PM","awayTeam":{"ID":"62","City":"Green Bay","Name":"Packers","Abbreviation":"GB"},"homeTeam":{"ID":"69","City":"Carolina","Name":"Panthers","Abbreviation":"CAR"},"location":"Bank of America Stadium"},{"id":"40578","date":"2017-12-17","time":"1:00PM","awayTeam":{"ID":"49","City":"Miami","Name":"Dolphins","Abbreviation":"MIA"},"homeTeam":{"ID":"48","City":"Buffalo","Name":"Bills","Abbreviation":"BUF"},"location":"Ralph Wilson Stadium"},{"id":"40579","date":"2017-12-17","time":"1:00PM","awayTeam":{"ID":"57","City":"Cincinnati","Name":"Bengals","Abbreviation":"CIN"},"homeTeam":{"ID":"63","City":"Minnesota","Name":"Vikings","Abbreviation":"MIN"},"location":"TCF Bank Stadium"},{"id":"40580","date":"2017-12-17","time":"1:00PM","awayTeam":{"ID":"76","City":"Arizona","Name":"Cardinals","Abbreviation":"ARI"},"homeTeam":{"ID":"55","City":"Washington","Name":"Redskins","Abbreviation":"WAS"},"location":"FedEx Field"},{"id":"40581","date":"2017-12-17","time":"1:00PM","awayTeam":{"ID":"54","City":"Philadelphia","Name":"Eagles","Abbreviation":"PHI"},"homeTeam":{"ID":"53","City":"New York","Name":"Giants","Abbreviation":"NYG"},"location":"MetLife Stadium"},{"id":"40582","date":"2017-12-17","time":"1:00PM","awayTeam":{"ID":"51","City":"New York","Name":"Jets","Abbreviation":"NYJ"},"homeTeam":{"ID":"70","City":"New Orleans","Name":"Saints","Abbreviation":"NO"},"location":"Mercedes-Benz Stadium"},{"id":"40583","date":"2017-12-17","time":"4:05PM","awayTeam":{"ID":"80","City":"Los Angeles","Name":"Rams","Abbreviation":"LAR"},"homeTeam":{"ID":"79","City":"Seattle","Name":"Seahawks","Abbreviation":"SEA"},"location":"CenturyLink Field"},{"id":"40584","date":"2017-12-17","time":"4:25PM","awayTeam":{"ID":"67","City":"Tennessee","Name":"Titans","Abbreviation":"TEN"},"homeTeam":{"ID":"78","City":"San Francisco","Name":"49ers","Abbreviation":"SF"},"location":"Levi's Stadium"},{"id":"40585","date":"2017-12-17","time":"4:25PM","awayTeam":{"ID":"50","City":"New England","Name":"Patriots","Abbreviation":"NE"},"homeTeam":{"ID":"59","City":"Pittsburgh","Name":"Steelers","Abbreviation":"PIT"},"location":"Heinz Field"},{"id":"40586","date":"2017-12-17","time":"8:30PM","awayTeam":{"ID":"52","City":"Dallas","Name":"Cowboys","Abbreviation":"DAL"},"homeTeam":{"ID":"74","City":"Oakland","Name":"Raiders","Abbreviation":"OAK"},"location":"O.co Coliseum"},{"id":"40587","date":"2017-12-18","time":"8:30PM","awayTeam":{"ID":"68","City":"Atlanta","Name":"Falcons","Abbreviation":"ATL"},"homeTeam":{"ID":"71","City":"Tampa Bay","Name":"Buccaneers","Abbreviation":"TB"},"location":"Raymond James Stadium"},{"id":"40588","date":"2017-12-23","time":"4:30PM","awayTeam":{"ID":"65","City":"Indianapolis","Name":"Colts","Abbreviation":"IND"},"homeTeam":{"ID":"56","City":"Baltimore","Name":"Ravens","Abbreviation":"BAL"},"location":"M&T Bank Stadium"},{"id":"40589","date":"2017-12-23","time":"8:30PM","awayTeam":{"ID":"63","City":"Minnesota","Name":"Vikings","Abbreviation":"MIN"},"homeTeam":{"ID":"62","City":"Green Bay","Name":"Packers","Abbreviation":"GB"},"location":"Lambeau Field"},{"id":"40590","date":"2017-12-24","time":"1:00PM","awayTeam":{"ID":"61","City":"Detroit","Name":"Lions","Abbreviation":"DET"},"homeTeam":{"ID":"57","City":"Cincinnati","Name":"Bengals","Abbreviation":"CIN"},"location":"Paul Brown Stadium"},{"id":"40591","date":"2017-12-24","time":"1:00PM","awayTeam":{"ID":"49","City":"Miami","Name":"Dolphins","Abbreviation":"MIA"},"homeTeam":{"ID":"73","City":"Kansas City","Name":"Chiefs","Abbreviation":"KC"},"location":"Arrowhead Stadium"},{"id":"40592","date":"2017-12-24","time":"1:00PM","awayTeam":{"ID":"48","City":"Buffalo","Name":"Bills","Abbreviation":"BUF"},"homeTeam":{"ID":"50","City":"New England","Name":"Patriots","Abbreviation":"NE"},"location":"Gillette Stadium"},{"id":"40593","date":"2017-12-24","time":"1:00PM","awayTeam":{"ID":"58","City":"Cleveland","Name":"Browns","Abbreviation":"CLE"},"homeTeam":{"ID":"60","City":"Chicago","Name":"Bears","Abbreviation":"CHI"},"location":"Soldier Field"},{"id":"40594","date":"2017-12-24","time":"1:00PM","awayTeam":{"ID":"71","City":"Tampa Bay","Name":"Buccaneers","Abbreviation":"TB"},"homeTeam":{"ID":"69","City":"Carolina","Name":"Panthers","Abbreviation":"CAR"},"location":"Bank of America Stadium"},{"id":"40595","date":"2017-12-24","time":"1:00PM","awayTeam":{"ID":"68","City":"Atlanta","Name":"Falcons","Abbreviation":"ATL"},"homeTeam":{"ID":"70","City":"New Orleans","Name":"Saints","Abbreviation":"NO"},"location":"Mercedes-Benz Stadium"},{"id":"40596","date":"2017-12-24","time":"1:00PM","awayTeam":{"ID":"72","City":"Denver","Name":"Broncos","Abbreviation":"DEN"},"homeTeam":{"ID":"55","City":"Washington","Name":"Redskins","Abbreviation":"WAS"},"location":"FedEx Field"},{"id":"40597","date":"2017-12-24","time":"1:00PM","awayTeam":{"ID":"80","City":"Los Angeles","Name":"Rams","Abbreviation":"LAR"},"homeTeam":{"ID":"67","City":"Tennessee","Name":"Titans","Abbreviation":"TEN"},"location":"Nissan Stadium"},{"id":"40598","date":"2017-12-24","time":"1:00PM","awayTeam":{"ID":"143","City":"Los Angeles","Name":"Chargers","Abbreviation":"LAC"},"homeTeam":{"ID":"51","City":"New York","Name":"Jets","Abbreviation":"NYJ"},"location":"MetLife Stadium"},{"id":"40599","date":"2017-12-24","time":"4:05PM","awayTeam":{"ID":"66","City":"Jacksonville","Name":"Jaguars","Abbreviation":"JAX"},"homeTeam":{"ID":"78","City":"San Francisco","Name":"49ers","Abbreviation":"SF"},"location":"Levi's Stadium"},{"id":"40600","date":"2017-12-24","time":"4:25PM","awayTeam":{"ID":"79","City":"Seattle","Name":"Seahawks","Abbreviation":"SEA"},"homeTeam":{"ID":"52","City":"Dallas","Name":"Cowboys","Abbreviation":"DAL"},"location":"AT&T Stadium"},{"id":"40601","date":"2017-12-24","time":"4:25PM","awayTeam":{"ID":"53","City":"New York","Name":"Giants","Abbreviation":"NYG"},"homeTeam":{"ID":"76","City":"Arizona","Name":"Cardinals","Abbreviation":"ARI"},"location":"University of Phoenix Stadium"},{"id":"40602","date":"2017-12-25","time":"4:30PM","awayTeam":{"ID":"59","City":"Pittsburgh","Name":"Steelers","Abbreviation":"PIT"},"homeTeam":{"ID":"64","City":"Houston","Name":"Texans","Abbreviation":"HOU"},"location":"NRG Stadium"},{"id":"40603","date":"2017-12-25","time":"8:30PM","awayTeam":{"ID":"74","City":"Oakland","Name":"Raiders","Abbreviation":"OAK"},"homeTeam":{"ID":"54","City":"Philadelphia","Name":"Eagles","Abbreviation":"PHI"},"location":"Lincoln Financial Field"},{"id":"40604","date":"2017-12-31","time":"1:00PM","awayTeam":{"ID":"69","City":"Carolina","Name":"Panthers","Abbreviation":"CAR"},"homeTeam":{"ID":"68","City":"Atlanta","Name":"Falcons","Abbreviation":"ATL"},"location":"Georgia Dome"},{"id":"40605","date":"2017-12-31","time":"1:00PM","awayTeam":{"ID":"57","City":"Cincinnati","Name":"Bengals","Abbreviation":"CIN"},"homeTeam":{"ID":"56","City":"Baltimore","Name":"Ravens","Abbreviation":"BAL"},"location":"M&T Bank Stadium"},{"id":"40606","date":"2017-12-31","time":"1:00PM","awayTeam":{"ID":"66","City":"Jacksonville","Name":"Jaguars","Abbreviation":"JAX"},"homeTeam":{"ID":"67","City":"Tennessee","Name":"Titans","Abbreviation":"TEN"},"location":"Nissan Stadium"},{"id":"40607","date":"2017-12-31","time":"1:00PM","awayTeam":{"ID":"70","City":"New Orleans","Name":"Saints","Abbreviation":"NO"},"homeTeam":{"ID":"71","City":"Tampa Bay","Name":"Buccaneers","Abbreviation":"TB"},"location":"Raymond James Stadium"},{"id":"40608","date":"2017-12-31","time":"1:00PM","awayTeam":{"ID":"58","City":"Cleveland","Name":"Browns","Abbreviation":"CLE"},"homeTeam":{"ID":"59","City":"Pittsburgh","Name":"Steelers","Abbreviation":"PIT"},"location":"Heinz Field"},{"id":"40609","date":"2017-12-31","time":"1:00PM","awayTeam":{"ID":"62","City":"Green Bay","Name":"Packers","Abbreviation":"GB"},"homeTeam":{"ID":"61","City":"Detroit","Name":"Lions","Abbreviation":"DET"},"location":"Ford Field"},{"id":"40610","date":"2017-12-31","time":"1:00PM","awayTeam":{"ID":"64","City":"Houston","Name":"Texans","Abbreviation":"HOU"},"homeTeam":{"ID":"65","City":"Indianapolis","Name":"Colts","Abbreviation":"IND"},"location":"Lucas Oil Stadium"},{"id":"40611","date":"2017-12-31","time":"1:00PM","awayTeam":{"ID":"48","City":"Buffalo","Name":"Bills","Abbreviation":"BUF"},"homeTeam":{"ID":"49","City":"Miami","Name":"Dolphins","Abbreviation":"MIA"},"location":"Sun Life Stadium"},{"id":"40612","date":"2017-12-31","time":"1:00PM","awayTeam":{"ID":"60","City":"Chicago","Name":"Bears","Abbreviation":"CHI"},"homeTeam":{"ID":"63","City":"Minnesota","Name":"Vikings","Abbreviation":"MIN"},"location":"TCF Bank Stadium"},{"id":"40613","date":"2017-12-31","time":"1:00PM","awayTeam":{"ID":"51","City":"New York","Name":"Jets","Abbreviation":"NYJ"},"homeTeam":{"ID":"50","City":"New England","Name":"Patriots","Abbreviation":"NE"},"location":"Gillette Stadium"},{"id":"40614","date":"2017-12-31","time":"1:00PM","awayTeam":{"ID":"55","City":"Washington","Name":"Redskins","Abbreviation":"WAS"},"homeTeam":{"ID":"53","City":"New York","Name":"Giants","Abbreviation":"NYG"},"location":"MetLife Stadium"},{"id":"40615","date":"2017-12-31","time":"1:00PM","awayTeam":{"ID":"52","City":"Dallas","Name":"Cowboys","Abbreviation":"DAL"},"homeTeam":{"ID":"54","City":"Philadelphia","Name":"Eagles","Abbreviation":"PHI"},"location":"Lincoln Financial Field"},{"id":"40616","date":"2017-12-31","time":"4:25PM","awayTeam":{"ID":"74","City":"Oakland","Name":"Raiders","Abbreviation":"OAK"},"homeTeam":{"ID":"143","City":"Los Angeles","Name":"Chargers","Abbreviation":"LAC"},"location":"StubHub Center"},{"id":"40617","date":"2017-12-31","time":"4:25PM","awayTeam":{"ID":"73","City":"Kansas City","Name":"Chiefs","Abbreviation":"KC"},"homeTeam":{"ID":"72","City":"Denver","Name":"Broncos","Abbreviation":"DEN"},"location":"Sports Authority Field"},{"id":"40618","date":"2017-12-31","time":"4:25PM","awayTeam":{"ID":"78","City":"San Francisco","Name":"49ers","Abbreviation":"SF"},"homeTeam":{"ID":"80","City":"Los Angeles","Name":"Rams","Abbreviation":"LAR"},"location":"Los Angeles Memorial Coliseum"},{"id":"40619","date":"2017-12-31","time":"4:25PM","awayTeam":{"ID":"76","City":"Arizona","Name":"Cardinals","Abbreviation":"ARI"},"homeTeam":{"ID":"79","City":"Seattle","Name":"Seahawks","Abbreviation":"SEA"},"location":"CenturyLink Field"}]}}