{"fullgameschedule":{"lastUpdatedOn":"2017-08-05 3:37:16 PM","gameentry":[{"id":"33946","date":"2016-10-26","time":"7:30PM","awayTeam":{"ID":"84","City":"Brooklyn","Name":"Nets","Abbreviation":"BRO"},"homeTeam":{"ID":"82","City":"Boston","Name":"Celtics","Abbreviation":"BOS"},"location":"TD Garden"},{"id":"33955","date":"2016-10-27","time":"8:00PM","awayTeam":{"ID":"82","City":"Boston","Name":"Celtics","Abbreviation":"BOS"},"homeTeam":{"ID":"89","City":"Chicago","Name":"Bulls","Abbreviation":"CHI"},"location":"United Center"},{"id":"33967","date":"2016-10-29","time":"7:00PM","awayTeam":{"ID":"82","City":"Boston","Name":"Celtics","Abbreviation":"BOS"},"homeTeam":{"ID":"93","City":"Charlotte","Name":"Hornets","Abbreviation":"CHA"},"location":"Time Warner Cable Arena"},{"id":"34001","date":"2016-11-02","time":"8:00PM","awayTeam":{"ID":"89","City":"Chicago","Name":"Bulls","Abbreviation":"CHI"},"homeTeam":{"ID":"82","City":"Boston","Name":"Celtics","Abbreviation":"BOS"},"location":"TD Garden"},{"id":"34008","date":"2016-11-03","time":"8:00PM","awayTeam":{"ID":"82","City":"Boston","Name":"Celtics","Abbreviation":"BOS"},"homeTeam":{"ID":"86","City":"Cleveland","Name":"Cavaliers","Abbreviation":"CLE"},"location":"Quicken Loans Arena"},{"id":"34031","date":"2016-11-06","time":"7:30PM","awayTeam":{"ID":"99","City":"Denver","Name":"Nuggets","Abbreviation":"DEN"},"homeTeam":{"ID":"82","City":"Boston","Name":"Celtics","Abbreviation":"BOS"},"location":"TD Garden"},{"id":"34047","date":"2016-11-09","time":"7:00PM","awayTeam":{"ID":"82","City":"Boston","Name":"Celtics","Abbreviation":"BOS"},"homeTeam":{"ID":"94","City":"Washington","Name":"Wizards","Abbreviation":"WAS"},"location":"Verizon Center"},{"id":"34065","date":"2016-11-11","time":"7:30PM","awayTeam":{"ID":"83","City":"New York","Name":"Knicks","Abbreviation":"NYK"},"homeTeam":{"ID":"82","City":"Boston","Name":"Celtics","Abbreviation":"BOS"},"location":"TD Garden"},{"id":"34070","date":"2016-11-12","time":"7:00PM","awayTeam":{"ID":"82","City":"Boston","Name":"Celtics","Abbreviation":"BOS"},"homeTeam":{"ID":"87","City":"Indiana","Name":"Pacers","Abbreviation":"IND"},"location":"Bankers Life Fieldhouse"},{"id":"34088","date":"2016-11-14","time":"8:00PM","awayTeam":{"ID":"82","City":"Boston","Name":"Celtics","Abbreviation":"BOS"},"homeTeam":{"ID":"110","City":"New Orleans","Name":"Pelicans","Abbreviation":"NOP"},"location":"Smoothie King Center"},{"id":"34101","date":"2016-11-16","time":"7:30PM","awayTeam":{"ID":"108","City":"Dallas","Name":"Mavericks","Abbreviation":"DAL"},"homeTeam":{"ID":"82","City":"Boston","Name":"Celtics","Abbreviation":"BOS"},"location":"TD Garden"},{"id":"34119","date":"2016-11-18","time":"8:00PM","awayTeam":{"ID":"101","City":"Golden State","Name":"Warriors","Abbreviation":"GSW"},"homeTeam":{"ID":"82","City":"Boston","Name":"Celtics","Abbreviation":"BOS"},"location":"TD Garden"},{"id":"34128","date":"2016-11-19","time":"7:00PM","awayTeam":{"ID":"82","City":"Boston","Name":"Celtics","Abbreviation":"BOS"},"homeTeam":{"ID":"88","City":"Detroit","Name":"Pistons","Abbreviation":"DET"},"location":"Palace of Auburn Hills"},{"id":"34145","date":"2016-11-21","time":"8:00PM","awayTeam":{"ID":"82","City":"Boston","Name":"Celtics","Abbreviation":"BOS"},"homeTeam":{"ID":"100","City":"Minnesota","Name":"Timberwolves","Abbreviation":"MIN"},"location":"Target Center"},{"id":"34157","date":"2016-11-23","time":"7:30PM","awayTeam":{"ID":"82","City":"Boston","Name":"Celtics","Abbreviation":"BOS"},"homeTeam":{"ID":"84","City":"Brooklyn","Name":"Nets","Abbreviation":"BRO"},"location":"Barclays Center"},{"id":"34165","date":"2016-11-25","time":"1:00PM","awayTeam":{"ID":"106","City":"San Antonio","Name":"Spurs","Abbreviation":"SAS"},"homeTeam":{"ID":"82","City":"Boston","Name":"Celtics","Abbreviation":"BOS"},"location":"TD Garden"},{"id":"34196","date":"2016-11-28","time":"7:30PM","awayTeam":{"ID":"82","City":"Boston","Name":"Celtics","Abbreviation":"BOS"},"homeTeam":{"ID":"92","City":"Miami","Name":"Heat","Abbreviation":"MIA"},"location":"American Airlines Arena"},{"id":"34207","date":"2016-11-30","time":"7:30PM","awayTeam":{"ID":"88","City":"Detroit","Name":"Pistons","Abbreviation":"DET"},"homeTeam":{"ID":"82","City":"Boston","Name":"Celtics","Abbreviation":"BOS"},"location":"TD Garden"},{"id":"34223","date":"2016-12-02","time":"7:30PM","awayTeam":{"ID":"103","City":"Sacramento","Name":"Kings","Abbreviation":"SAC"},"homeTeam":{"ID":"82","City":"Boston","Name":"Celtics","Abbreviation":"BOS"},"location":"TD Garden"},{"id":"34234","date":"2016-12-03","time":"7:30PM","awayTeam":{"ID":"82","City":"Boston","Name":"Celtics","Abbreviation":"BOS"},"homeTeam":{"ID":"85","City":"Philadelphia","Name":"76ers","Abbreviation":"PHI"},"location":"Wells Fargo Center"},{"id":"34251","date":"2016-12-05","time":"8:00PM","awayTeam":{"ID":"82","City":"Boston","Name":"Celtics","Abbreviation":"BOS"},"homeTeam":{"ID":"109","City":"Houston","Name":"Rockets","Abbreviation":"HOU"},"location":"Toyota Center"},{"id":"34262","date":"2016-12-07","time":"7:00PM","awayTeam":{"ID":"82","City":"Boston","Name":"Celtics","Abbreviation":"BOS"},"homeTeam":{"ID":"95","City":"Orlando","Name":"Magic","Abbreviation":"ORL"},"location":"Amway Center"},{"id":"34279","date":"2016-12-09","time":"7:30PM","awayTeam":{"ID":"81","City":"Toronto","Name":"Raptors","Abbreviation":"TOR"},"homeTeam":{"ID":"82","City":"Boston","Name":"Celtics","Abbreviation":"BOS"},"location":"TD Garden"},{"id":"34297","date":"2016-12-11","time":"7:00PM","awayTeam":{"ID":"82","City":"Boston","Name":"Celtics","Abbreviation":"BOS"},"homeTeam":{"ID":"96","City":"Oklahoma City","Name":"Thunder","Abbreviation":"OKL"},"location":"Chesapeake Energy Arena"},{"id":"34323","date":"2016-12-14","time":"9:30PM","awayTeam":{"ID":"82","City":"Boston","Name":"Celtics","Abbreviation":"BOS"},"homeTeam":{"ID":"106","City":"San Antonio","Name":"Spurs","Abbreviation":"SAS"},"location":"AT&T Center"},{"id":"34331","date":"2016-12-16","time":"7:30PM","awayTeam":{"ID":"93","City":"Charlotte","Name":"Hornets","Abbreviation":"CHA"},"homeTeam":{"ID":"82","City":"Boston","Name":"Celtics","Abbreviation":"BOS"},"location":"TD Garden"},{"id":"34350","date":"2016-12-18","time":"6:00PM","awayTeam":{"ID":"82","City":"Boston","Name":"Celtics","Abbreviation":"BOS"},"homeTeam":{"ID":"92","City":"Miami","Name":"Heat","Abbreviation":"MIA"},"location":"American Airlines Arena"},{"id":"34364","date":"2016-12-20","time":"8:00PM","awayTeam":{"ID":"82","City":"Boston","Name":"Celtics","Abbreviation":"BOS"},"homeTeam":{"ID":"107","City":"Memphis","Name":"Grizzlies","Abbreviation":"MEM"},"location":"FedEx Forum"},{"id":"34380","date":"2016-12-22","time":"7:00PM","awayTeam":{"ID":"82","City":"Boston","Name":"Celtics","Abbreviation":"BOS"},"homeTeam":{"ID":"87","City":"Indiana","Name":"Pacers","Abbreviation":"IND"},"location":"Bankers Life Fieldhouse"},{"id":"34385","date":"2016-12-23","time":"7:30PM","awayTeam":{"ID":"96","City":"Oklahoma City","Name":"Thunder","Abbreviation":"OKL"},"homeTeam":{"ID":"82","City":"Boston","Name":"Celtics","Abbreviation":"BOS"},"location":"TD Garden"},{"id":"34396","date":"2016-12-25","time":"12:00PM","awayTeam":{"ID":"82","City":"Boston","Name":"Celtics","Abbreviation":"BOS"},"homeTeam":{"ID":"83","City":"New York","Name":"Knicks","Abbreviation":"NYK"},"location":"Madison Square Garden"},{"id":"34412","date":"2016-12-27","time":"7:30PM","awayTeam":{"ID":"107","City":"Memphis","Name":"Grizzlies","Abbreviation":"MEM"},"homeTeam":{"ID":"82","City":"Boston","Name":"Celtics","Abbreviation":"BOS"},"location":"TD Garden"},{"id":"34428","date":"2016-12-29","time":"8:00PM","awayTeam":{"ID":"82","City":"Boston","Name":"Celtics","Abbreviation":"BOS"},"homeTeam":{"ID":"86","City":"Cleveland","Name":"Cavaliers","Abbreviation":"CLE"},"location":"Quicken Loans Arena"},{"id":"34434","date":"2016-12-30","time":"7:30PM","awayTeam":{"ID":"92","City":"Miami","Name":"Heat","Abbreviation":"MIA"},"homeTeam":{"ID":"82","City":"Boston","Name":"Celtics","Abbreviation":"BOS"},"location":"TD Garden"},{"id":"34462","date":"2017-01-03","time":"7:30PM","awayTeam":{"ID":"98","City":"Utah","Name":"Jazz","Abbreviation":"UTA"},"homeTeam":{"ID":"82","City":"Boston","Name":"Celtics","Abbreviation":"BOS"},"location":"TD Garden"},{"id":"34486","date":"2017-01-06","time":"7:30PM","awayTeam":{"ID":"85","City":"Philadelphia","Name":"76ers","Abbreviation":"PHI"},"homeTeam":{"ID":"82","City":"Boston","Name":"Celtics","Abbreviation":"BOS"},"location":"TD Garden"},{"id":"34493","date":"2017-01-07","time":"7:30PM","awayTeam":{"ID":"110","City":"New Orleans","Name":"Pelicans","Abbreviation":"NOP"},"homeTeam":{"ID":"82","City":"Boston","Name":"Celtics","Abbreviation":"BOS"},"location":"TD Garden"},{"id":"34512","date":"2017-01-10","time":"7:30PM","awayTeam":{"ID":"82","City":"Boston","Name":"Celtics","Abbreviation":"BOS"},"homeTeam":{"ID":"81","City":"Toronto","Name":"Raptors","Abbreviation":"TOR"},"location":"Air Canada Centre"},{"id":"34523","date":"2017-01-11","time":"8:00PM","awayTeam":{"ID":"94","City":"Washington","Name":"Wizards","Abbreviation":"WAS"},"homeTeam":{"ID":"82","City":"Boston","Name":"Celtics","Abbreviation":"BOS"},"location":"TD Garden"},{"id":"34537","date":"2017-01-13","time":"8:00PM","awayTeam":{"ID":"82","City":"Boston","Name":"Celtics","Abbreviation":"BOS"},"homeTeam":{"ID":"91","City":"Atlanta","Name":"Hawks","Abbreviation":"ATL"},"location":"Philips Arena"},{"id":"34558","date":"2017-01-16","time":"7:30PM","awayTeam":{"ID":"93","City":"Charlotte","Name":"Hornets","Abbreviation":"CHA"},"homeTeam":{"ID":"82","City":"Boston","Name":"Celtics","Abbreviation":"BOS"},"location":"TD Garden"},{"id":"34570","date":"2017-01-18","time":"7:30PM","awayTeam":{"ID":"83","City":"New York","Name":"Knicks","Abbreviation":"NYK"},"homeTeam":{"ID":"82","City":"Boston","Name":"Celtics","Abbreviation":"BOS"},"location":"TD Garden"},{"id":"34590","date":"2017-01-21","time":"5:00PM","awayTeam":{"ID":"97","City":"Portland","Name":"Trail Blazers","Abbreviation":"POR"},"homeTeam":{"ID":"82","City":"Boston","Name":"Celtics","Abbreviation":"BOS"},"location":"TD Garden"},{"id":"34616","date":"2017-01-24","time":"7:00PM","awayTeam":{"ID":"82","City":"Boston","Name":"Celtics","Abbreviation":"BOS"},"homeTeam":{"ID":"94","City":"Washington","Name":"Wizards","Abbreviation":"WAS"},"location":"Verizon Center"},{"id":"34621","date":"2017-01-25","time":"7:30PM","awayTeam":{"ID":"109","City":"Houston","Name":"Rockets","Abbreviation":"HOU"},"homeTeam":{"ID":"82","City":"Boston","Name":"Celtics","Abbreviation":"BOS"},"location":"TD Garden"},{"id":"34637","date":"2017-01-27","time":"7:30PM","awayTeam":{"ID":"95","City":"Orlando","Name":"Magic","Abbreviation":"ORL"},"homeTeam":{"ID":"82","City":"Boston","Name":"Celtics","Abbreviation":"BOS"},"location":"TD Garden"},{"id":"34646","date":"2017-01-28","time":"8:00PM","awayTeam":{"ID":"82","City":"Boston","Name":"Celtics","Abbreviation":"BOS"},"homeTeam":{"ID":"90","City":"Milwaukee","Name":"Bucks","Abbreviation":"MIL"},"location":"BMO Harris Bradley Center"},{"id":"34661","date":"2017-01-30","time":"8:00PM","awayTeam":{"ID":"88","City":"Detroit","Name":"Pistons","Abbreviation":"DET"},"homeTeam":{"ID":"82","City":"Boston","Name":"Celtics","Abbreviation":"BOS"},"location":"TD Garden"},{"id":"34672","date":"2017-02-01","time":"7:30PM","awayTeam":{"ID":"81","City":"Toronto","Name":"Raptors","Abbreviation":"TOR"},"homeTeam":{"ID":"82","City":"Boston","Name":"Celtics","Abbreviation":"BOS"},"location":"TD Garden"},{"id":"34691","date":"2017-02-03","time":"8:00PM","awayTeam":{"ID":"105","City":"Los Angeles","Name":"Lakers","Abbreviation":"LAL"},"homeTeam":{"ID":"82","City":"Boston","Name":"Celtics","Abbreviation":"BOS"},"location":"TD Garden"}]}}